[{"Airport Name":"GOROKA","City\/Town":"GOROKA","Country":"PAPUA NEW GUINEA","location":{"type":"Point","coordinates":[145.392,-6.082]}},{"Airport Name":"MADANG","City\/Town":"MADANG","Country":"PAPUA NEW GUINEA","location":{"type":"Point","coordinates":[145.789,-5.207]}},{"Airport Name":"MOUNT HAGEN","City\/Town":"MOUNT HAGEN","Country":"PAPUA NEW GUINEA","location":{"type":"Point","coordinates":[144.296,-5.826]}},{"Airport Name":"NADZAB","City\/Town":"NADZAB","Country":"PAPUA NEW GUINEA","location":{"type":"Point","coordinates":[146.726,-6.57]}},{"Airport Name":"PORT MORESBY JACKSONS INTERNATIONAL","City\/Town":"PORT MORESBY","Country":"PAPUA NEW GUINEA","location":{"type":"Point","coordinates":[147.22,-9.443]}},{"Airport Name":"WEWAK INTERNATIONAL","City\/Town":"WEWAK","Country":"PAPUA NEW GUINEA","location":{"type":"Point","coordinates":[143.669,-3.584]}},{"Airport Name":"NARSARSUAQ","City\/Town":"NARSSARSSUAQ","Country":"GREENLAND","location":{"type":"Point","coordinates":[-45.427,61.161]}},{"Airport Name":"NERLERIT INAAT CONSTABLE PYNT","City\/Town":"NERLERIT INAAT","Country":"GREENLAND","location":{"type":"Point","coordinates":[-22.646,70.739]}},{"Airport Name":"NUUK","City\/Town":"GODTHAAB","Country":"GREENLAND","location":{"type":"Point","coordinates":[-51.678,64.191]}},{"Airport Name":"JACOBSHAVN","City\/Town":"JAKOBSHAVN","Country":"GREENLAND","location":{"type":"Point","coordinates":[-51.067,69.233]}},{"Airport Name":"KULUSUK","City\/Town":"KULUSUK","Country":"GREENLAND","location":{"type":"Point","coordinates":[-37.15,65.583]}},{"Airport Name":"KANGERLUSSUAQ SONDRE STROMFJORD","City\/Town":"SONDRESTROM","Country":"GREENLAND","location":{"type":"Point","coordinates":[-50.689,67.017]}},{"Airport Name":"THULE AIR BASE","City\/Town":"THULE","Country":"GREENLAND","location":{"type":"Point","coordinates":[-68.703,76.531]}},{"Airport Name":"AKUREYRI","City\/Town":"AKUREYRI","Country":"ICELAND","location":{"type":"Point","coordinates":[-18.072,65.66]}},{"Airport Name":"EGILSSTADIR","City\/Town":"EGILSSTADIR","Country":"ICELAND","location":{"type":"Point","coordinates":[-14.401,65.283]}},{"Airport Name":"HORNAFJORDUR","City\/Town":"HOFN","Country":"ICELAND","location":{"type":"Point","coordinates":[-15.227,64.296]}},{"Airport Name":"HUSAVIK","City\/Town":"HUSAVIK","Country":"ICELAND","location":{"type":"Point","coordinates":[-17.426,65.952]}},{"Airport Name":"ISAFJORDUR","City\/Town":"ISAFJORDUR","Country":"ICELAND","location":{"type":"Point","coordinates":[-23.135,66.058]}},{"Airport Name":"KEFLAVIK NAS","City\/Town":"KEFLAVIK","Country":"ICELAND","location":{"type":"Point","coordinates":[-22.606,63.985]}},{"Airport Name":"KOPASKER","City\/Town":"KOPASKER","Country":"ICELAND","location":{"type":"Point","coordinates":[-16.461,66.314]}},{"Airport Name":"PATREKSFJORDUR","City\/Town":"PATREKSFJORDUR","Country":"ICELAND","location":{"type":"Point","coordinates":[-23.965,65.556]}},{"Airport Name":"REYKJAVIK","City\/Town":"REYKJAVIK","Country":"ICELAND","location":{"type":"Point","coordinates":[-21.941,64.13]}},{"Airport Name":"SIGLUFJORDHUR","City\/Town":"SIGLUFJORDUR","Country":"ICELAND","location":{"type":"Point","coordinates":[-18.917,66.133]}},{"Airport Name":"VESTMANNAEYJAR","City\/Town":"VESTMANNAEYJAR","Country":"ICELAND","location":{"type":"Point","coordinates":[-20.279,63.424]}},{"Airport Name":"SAULT STE MARIE","City\/Town":"SAULT SAINTE MARIE","Country":"CANADA","location":{"type":"Point","coordinates":[-84.509,46.485]}},{"Airport Name":"WINNIPEG ST ANDREWS","City\/Town":"WINNIPEG","Country":"CANADA","location":{"type":"Point","coordinates":[-97.032,50.056]}},{"Airport Name":"SHEARWATER","City\/Town":"HALIFAX","Country":"CANADA","location":{"type":"Point","coordinates":[-63.499,44.64]}},{"Airport Name":"ST ANTHONY","City\/Town":"ST. ANTHONY","Country":"CANADA","location":{"type":"Point","coordinates":[-56.084,51.392]}},{"Airport Name":"TOFINO","City\/Town":"TOFINO","Country":"CANADA","location":{"type":"Point","coordinates":[-125.772,49.082]}},{"Airport Name":"KUGAARUK","City\/Town":"PELLY BAY","Country":"CANADA","location":{"type":"Point","coordinates":[-89.808,68.534]}},{"Airport Name":"BAIE COMEAU","City\/Town":"BAIE COMEAU","Country":"CANADA","location":{"type":"Point","coordinates":[-68.207,49.132]}},{"Airport Name":"BAGOTVILLE","City\/Town":"BAGOTVILLE","Country":"CANADA","location":{"type":"Point","coordinates":[-70.996,48.331]}},{"Airport Name":"BAKER LAKE","City\/Town":"BAKER LAKE","Country":"CANADA","location":{"type":"Point","coordinates":[-96.078,64.299]}},{"Airport Name":"CAMPBELL RIVER","City\/Town":"CAMPBELL RIVER","Country":"CANADA","location":{"type":"Point","coordinates":[-125.271,49.951]}},{"Airport Name":"BRANDON MUNI","City\/Town":"BRANDON","Country":"CANADA","location":{"type":"Point","coordinates":[-99.952,49.91]}},{"Airport Name":"CAMBRIDGE BAY","City\/Town":"CAMBRIDGE BAY","Country":"CANADA","location":{"type":"Point","coordinates":[-105.138,69.108]}},{"Airport Name":"NANAIMO","City\/Town":"NANAIMO","Country":"CANADA","location":{"type":"Point","coordinates":[-123.87,49.052]}},{"Airport Name":"CASTLEGAR","City\/Town":"CASTLEGAR","Country":"CANADA","location":{"type":"Point","coordinates":[-117.632,49.296]}},{"Airport Name":"MIRAMICHI","City\/Town":"CHATHAM","Country":"CANADA","location":{"type":"Point","coordinates":[-65.449,47.008]}},{"Airport Name":"CHARLO","City\/Town":"CHARLO","Country":"CANADA","location":{"type":"Point","coordinates":[-66.331,47.991]}},{"Airport Name":"KUGLUKTUK","City\/Town":"COPPERMINE","Country":"CANADA","location":{"type":"Point","coordinates":[-115.144,67.817]}},{"Airport Name":"CORONATION","City\/Town":"CORONATION","Country":"CANADA","location":{"type":"Point","coordinates":[-111.445,52.075]}},{"Airport Name":"CHILLIWACK","City\/Town":"CHILLIWACK","Country":"CANADA","location":{"type":"Point","coordinates":[-121.939,49.153]}},{"Airport Name":"CLYDE RIVER","City\/Town":"CLYDE RIVER","Country":"CANADA","location":{"type":"Point","coordinates":[-68.517,70.486]}},{"Airport Name":"FAIRMONT HOT SPRINGS","City\/Town":"CORAL HARBOUR","Country":"CANADA","location":{"type":"Point","coordinates":[-115.874,50.332]}},{"Airport Name":"DAWSON","City\/Town":"DAWSON","Country":"CANADA","location":{"type":"Point","coordinates":[-139.128,64.043]}},{"Airport Name":"BURWASH","City\/Town":"BURWASH","Country":"CANADA","location":{"type":"Point","coordinates":[-139.041,61.371]}},{"Airport Name":"PRINCETON","City\/Town":"PRINCETON","Country":"CANADA","location":{"type":"Point","coordinates":[-120.512,49.468]}},{"Airport Name":"DEER LAKE","City\/Town":"DEER LAKE","Country":"CANADA","location":{"type":"Point","coordinates":[-57.391,49.211]}},{"Airport Name":"DEASE LAKE","City\/Town":"DEASE LAKE","Country":"CANADA","location":{"type":"Point","coordinates":[-130.032,58.422]}},{"Airport Name":"DAUPHIN BARKER","City\/Town":"DAUPHIN","Country":"CANADA","location":{"type":"Point","coordinates":[-100.052,51.101]}},{"Airport Name":"DAWSON CREEK","City\/Town":"DAWSON CREEK","Country":"CANADA","location":{"type":"Point","coordinates":[-120.182,55.742]}},{"Airport Name":"EDMONTON NAMAO","City\/Town":"EDMONTON","Country":"CANADA","location":{"type":"Point","coordinates":[-113.467,53.667]}},{"Airport Name":"EDMONTON INTERNATIONAL","City\/Town":"EDMONTON","Country":"CANADA","location":{"type":"Point","coordinates":[-113.58,53.31]}},{"Airport Name":"ARVIAT","City\/Town":"ESKIMO POINT","Country":"CANADA","location":{"type":"Point","coordinates":[-94.071,61.094]}},{"Airport Name":"ESTEVAN","City\/Town":"ESTEVAN","Country":"CANADA","location":{"type":"Point","coordinates":[-102.966,49.21]}},{"Airport Name":"EDSON","City\/Town":"EDSON","Country":"CANADA","location":{"type":"Point","coordinates":[-116.465,53.579]}},{"Airport Name":"EUREKA","City\/Town":"EUREKA","Country":"CANADA","location":{"type":"Point","coordinates":[-85.813,79.995]}},{"Airport Name":"INUVIK MIKE ZUBKO","City\/Town":"INUVIK","Country":"CANADA","location":{"type":"Point","coordinates":[-133.483,68.304]}},{"Airport Name":"IQALUIT","City\/Town":"IQALUIT","Country":"CANADA","location":{"type":"Point","coordinates":[-68.556,63.756]}},{"Airport Name":"FREDERICTON","City\/Town":"FREDERICTON","Country":"CANADA","location":{"type":"Point","coordinates":[-66.532,45.869]}},{"Airport Name":"FORESTVILLE","City\/Town":"FORESTVILLE","Country":"CANADA","location":{"type":"Point","coordinates":[-69.097,48.746]}},{"Airport Name":"FLIN FLON","City\/Town":"FLIN FLON","Country":"CANADA","location":{"type":"Point","coordinates":[-101.682,54.678]}},{"Airport Name":"FORT RESOLUTION","City\/Town":"FORT RESOLUTION","Country":"CANADA","location":{"type":"Point","coordinates":[-113.69,61.181]}},{"Airport Name":"FORT SIMPSON","City\/Town":"FORT SIMPSON","Country":"CANADA","location":{"type":"Point","coordinates":[-121.237,61.76]}},{"Airport Name":"KINGSTON","City\/Town":"KINGSTON","Country":"CANADA","location":{"type":"Point","coordinates":[-76.597,44.225]}},{"Airport Name":"LA GRANDE RIVIERE","City\/Town":"LA GRANDE RIVIERE","Country":"CANADA","location":{"type":"Point","coordinates":[-77.704,53.625]}},{"Airport Name":"GASPE","City\/Town":"GASPE","Country":"CANADA","location":{"type":"Point","coordinates":[-64.479,48.775]}},{"Airport Name":"GERALDTON GREENSTONE REGIONAL","City\/Town":"GERALDTON","Country":"CANADA","location":{"type":"Point","coordinates":[-86.939,49.778]}},{"Airport Name":"ILES DE LA MADELEINE","City\/Town":"ILES DE LA MADELEINE","Country":"CANADA","location":{"type":"Point","coordinates":[-61.778,47.425]}},{"Airport Name":"KUUJJUARAPIK","City\/Town":"KUUJJUARARAPIK","Country":"CANADA","location":{"type":"Point","coordinates":[-77.767,55.283]}},{"Airport Name":"GILLAM","City\/Town":"GILLAM","Country":"CANADA","location":{"type":"Point","coordinates":[-94.7,56.35]}},{"Airport Name":"HUDSON BAY","City\/Town":"HUDSON BAY","Country":"CANADA","location":{"type":"Point","coordinates":[-102.311,52.817]}},{"Airport Name":"DRYDEN RGNL","City\/Town":"DRYDEN","Country":"CANADA","location":{"type":"Point","coordinates":[-92.744,49.832]}},{"Airport Name":"HOLMAN","City\/Town":"HOLMAN ISLAND","Country":"CANADA","location":{"type":"Point","coordinates":[-117.806,70.763]}},{"Airport Name":"GJOA HAVEN","City\/Town":"GJOA HAVEN","Country":"CANADA","location":{"type":"Point","coordinates":[-95.85,68.636]}},{"Airport Name":"HAMILTON","City\/Town":"HAMILTON","Country":"CANADA","location":{"type":"Point","coordinates":[-79.935,43.173]}},{"Airport Name":"ST HUBERT","City\/Town":"MONTREAL","Country":"CANADA","location":{"type":"Point","coordinates":[-73.417,45.517]}},{"Airport Name":"HAY RIVER","City\/Town":"HAY RIVER","Country":"CANADA","location":{"type":"Point","coordinates":[-115.783,60.84]}},{"Airport Name":"HALIFAX INTERNATIONAL","City\/Town":"HALIFAX","Country":"CANADA","location":{"type":"Point","coordinates":[-63.509,44.881]}},{"Airport Name":"ATIKOKAN MUNI","City\/Town":"ATIKOKAN","Country":"CANADA","location":{"type":"Point","coordinates":[-91.639,48.774]}},{"Airport Name":"POND INLET","City\/Town":"POND INLET","Country":"CANADA","location":{"type":"Point","coordinates":[-77.967,72.683]}},{"Airport Name":"ST JEAN","City\/Town":"ST. JEAN","Country":"CANADA","location":{"type":"Point","coordinates":[-73.281,45.294]}},{"Airport Name":"STEPHENVILLE","City\/Town":"STEPHENVILLE","Country":"CANADA","location":{"type":"Point","coordinates":[-58.55,48.544]}},{"Airport Name":"KAMLOOPS","City\/Town":"KAMLOOPS","Country":"CANADA","location":{"type":"Point","coordinates":[-120.442,50.702]}},{"Airport Name":"WATERLOO RGNL","City\/Town":"WATERLOO","Country":"CANADA","location":{"type":"Point","coordinates":[-80.384,43.459]}},{"Airport Name":"SCHEFFERVILLE","City\/Town":"SCHEFFERVILLE","Country":"CANADA","location":{"type":"Point","coordinates":[-66.805,54.805]}},{"Airport Name":"KINDERSLEY","City\/Town":"KINDERSLEY","Country":"CANADA","location":{"type":"Point","coordinates":[-109.181,51.517]}},{"Airport Name":"BUTTONVILLE MUNI","City\/Town":"TORONTO","Country":"CANADA","location":{"type":"Point","coordinates":[-79.37,43.862]}},{"Airport Name":"CHAPLEAU","City\/Town":"CHAPLEAU","Country":"CANADA","location":{"type":"Point","coordinates":[-83.346,47.82]}},{"Airport Name":"MEADOW LAKE","City\/Town":"MEADOW LAKE","Country":"CANADA","location":{"type":"Point","coordinates":[-108.523,54.125]}},{"Airport Name":"LLOYDMINSTER","City\/Town":"LLOYDMINSTER","Country":"CANADA","location":{"type":"Point","coordinates":[-110.072,53.309]}},{"Airport Name":"ALERT","City\/Town":"ALERT","Country":"CANADA","location":{"type":"Point","coordinates":[-62.281,82.518]}},{"Airport Name":"KELOWNA","City\/Town":"KELOWNA","Country":"CANADA","location":{"type":"Point","coordinates":[-119.378,49.956]}},{"Airport Name":"MAYO","City\/Town":"MAYO","Country":"CANADA","location":{"type":"Point","coordinates":[-135.867,63.617]}},{"Airport Name":"MOOSE JAW","City\/Town":"MOOSE JAW","Country":"CANADA","location":{"type":"Point","coordinates":[-105.559,50.33]}},{"Airport Name":"FORT MCMURRAY","City\/Town":"FORT MCMURRAY","Country":"CANADA","location":{"type":"Point","coordinates":[-111.222,56.653]}},{"Airport Name":"MOOSONEE","City\/Town":"MOOSONEE","Country":"CANADA","location":{"type":"Point","coordinates":[-80.608,51.291]}},{"Airport Name":"MANIWAKI","City\/Town":"MANIWAKI","Country":"CANADA","location":{"type":"Point","coordinates":[-75.99,46.274]}},{"Airport Name":"MONTREAL INTERNATIONAL MIRABEL","City\/Town":"MONTREAL","Country":"CANADA","location":{"type":"Point","coordinates":[-74.039,45.68]}},{"Airport Name":"NATASHQUAN","City\/Town":"NATASHQUAN","Country":"CANADA","location":{"type":"Point","coordinates":[-61.789,50.19]}},{"Airport Name":"GATINEAU","City\/Town":"GATINEAU","Country":"CANADA","location":{"type":"Point","coordinates":[-75.564,45.521]}},{"Airport Name":"MATAGAMI","City\/Town":"MATAGAMI","Country":"CANADA","location":{"type":"Point","coordinates":[-77.803,49.762]}},{"Airport Name":"OLD CROW","City\/Town":"OLD CROW","Country":"CANADA","location":{"type":"Point","coordinates":[-139.839,67.571]}},{"Airport Name":"COLD LAKE","City\/Town":"COLD LAKE","Country":"CANADA","location":{"type":"Point","coordinates":[-110.279,54.405]}},{"Airport Name":"HIGH LEVEL","City\/Town":"HIGH LEVEL","Country":"CANADA","location":{"type":"Point","coordinates":[-117.165,58.621]}},{"Airport Name":"OTTAWA MACDONALD CARTIER INTERNATIONAL","City\/Town":"OTTAWA","Country":"CANADA","location":{"type":"Point","coordinates":[-75.669,45.323]}},{"Airport Name":"PRINCE ALBERT GLASS FIELD","City\/Town":"PRINCE ALBERT","Country":"CANADA","location":{"type":"Point","coordinates":[-105.673,53.214]}},{"Airport Name":"PEACE RIVER","City\/Town":"PEACE RIVER","Country":"CANADA","location":{"type":"Point","coordinates":[-117.447,56.227]}},{"Airport Name":"SOUTHPORT","City\/Town":"PORTAGE-LA-PRAIRIE","Country":"CANADA","location":{"type":"Point","coordinates":[-98.275,49.903]}},{"Airport Name":"PITT MEADOWS","City\/Town":"PITT MEADOWS","Country":"CANADA","location":{"type":"Point","coordinates":[-122.71,49.216]}},{"Airport Name":"PICKLE LAKE","City\/Town":"PICKLE LAKE","Country":"CANADA","location":{"type":"Point","coordinates":[-90.214,51.446]}},{"Airport Name":"PORT MENIER","City\/Town":"PORT MENIER","Country":"CANADA","location":{"type":"Point","coordinates":[-64.289,49.836]}},{"Airport Name":"PETERBOROUGH","City\/Town":"PETERBOROUGH","Country":"CANADA","location":{"type":"Point","coordinates":[-78.363,44.23]}},{"Airport Name":"PRINCE RUPERT","City\/Town":"PRINCE PUPERT","Country":"CANADA","location":{"type":"Point","coordinates":[-130.445,54.286]}},{"Airport Name":"FORT CHIPEWYAN","City\/Town":"FORT CHIPEWYAN","Country":"CANADA","location":{"type":"Point","coordinates":[-111.117,58.767]}},{"Airport Name":"MUSKOKA","City\/Town":"MUSKOKA","Country":"CANADA","location":{"type":"Point","coordinates":[-79.303,44.975]}},{"Airport Name":"QUEBEC JEAN LESAGE INTERNATIONAL","City\/Town":"QUEBEC","Country":"CANADA","location":{"type":"Point","coordinates":[-71.398,46.788]}},{"Airport Name":"RED DEER REGIONAL","City\/Town":"RED DEER INDUSTRIAL","Country":"CANADA","location":{"type":"Point","coordinates":[-113.893,52.179]}},{"Airport Name":"WINDSOR","City\/Town":"WINDSOR","Country":"CANADA","location":{"type":"Point","coordinates":[-82.956,42.276]}},{"Airport Name":"WATSON LAKE","City\/Town":"WATSON LAKE","Country":"CANADA","location":{"type":"Point","coordinates":[-128.822,60.118]}},{"Airport Name":"KENORA","City\/Town":"KENORA","Country":"CANADA","location":{"type":"Point","coordinates":[-94.363,49.788]}},{"Airport Name":"LETHBRIDGE","City\/Town":"LETHBRIDGE","Country":"CANADA","location":{"type":"Point","coordinates":[-112.8,49.63]}},{"Airport Name":"GREATER MONCTON INTERNATIONAL","City\/Town":"MONCTON","Country":"CANADA","location":{"type":"Point","coordinates":[-64.679,46.112]}},{"Airport Name":"NAKINA","City\/Town":"NAKINA","Country":"CANADA","location":{"type":"Point","coordinates":[-86.696,50.183]}},{"Airport Name":"COMOX","City\/Town":"COMOX","Country":"CANADA","location":{"type":"Point","coordinates":[-124.887,49.711]}},{"Airport Name":"REGINA INTERNATIONAL","City\/Town":"REGINA","Country":"CANADA","location":{"type":"Point","coordinates":[-104.666,50.432]}},{"Airport Name":"THUNDER BAY","City\/Town":"THUNDER BAY","Country":"CANADA","location":{"type":"Point","coordinates":[-89.324,48.372]}},{"Airport Name":"GRANDE PRAIRIE","City\/Town":"GRANDE PRAIRIE","Country":"CANADA","location":{"type":"Point","coordinates":[-118.885,55.18]}},{"Airport Name":"YORKTON MUNI","City\/Town":"YORKTON","Country":"CANADA","location":{"type":"Point","coordinates":[-102.462,51.265]}},{"Airport Name":"NORTH BATTLEFORD","City\/Town":"NORTH BATTLEFORD","Country":"CANADA","location":{"type":"Point","coordinates":[-108.244,52.769]}},{"Airport Name":"GANDER INTERNATIONAL","City\/Town":"GANDER","Country":"CANADA","location":{"type":"Point","coordinates":[-54.568,48.937]}},{"Airport Name":"SYDNEY","City\/Town":"SYDNEY","Country":"CANADA","location":{"type":"Point","coordinates":[-60.048,46.161]}},{"Airport Name":"QUESNEL","City\/Town":"QUESNEL","Country":"CANADA","location":{"type":"Point","coordinates":[-122.51,53.026]}},{"Airport Name":"RESOLUTE BAY","City\/Town":"RESOLUTE","Country":"CANADA","location":{"type":"Point","coordinates":[-94.969,74.717]}},{"Airport Name":"RIVIERE DU LOUP","City\/Town":"RIVIERE DU LOUP","Country":"CANADA","location":{"type":"Point","coordinates":[-69.585,47.764]}},{"Airport Name":"ROBERVAL","City\/Town":"ROBERVAL","Country":"CANADA","location":{"type":"Point","coordinates":[-72.266,48.52]}},{"Airport Name":"ROCKY MOUNTAIN HOUSE","City\/Town":"ROCKY MOUNTAIN HOUSE","Country":"CANADA","location":{"type":"Point","coordinates":[-114.904,52.43]}},{"Airport Name":"RANKIN INLET","City\/Town":"RANKIN INLET","Country":"CANADA","location":{"type":"Point","coordinates":[-92.116,62.811]}},{"Airport Name":"SUDBURY","City\/Town":"SUDBURY","Country":"CANADA","location":{"type":"Point","coordinates":[-80.799,46.625]}},{"Airport Name":"SHERBROOKE","City\/Town":"SHERBROOKE","Country":"CANADA","location":{"type":"Point","coordinates":[-71.691,45.438]}},{"Airport Name":"SAINT JOHN","City\/Town":"ST. JOHN","Country":"CANADA","location":{"type":"Point","coordinates":[-65.89,45.316]}},{"Airport Name":"FORT SMITH","City\/Town":"FORT SMITH","Country":"CANADA","location":{"type":"Point","coordinates":[-111.96,60.022]}},{"Airport Name":"NANISIVIK","City\/Town":"NANISIVIK","Country":"CANADA","location":{"type":"Point","coordinates":[-84.614,72.982]}},{"Airport Name":"SUMMERSIDE","City\/Town":"SUMMERSIDE","Country":"CANADA","location":{"type":"Point","coordinates":[-63.831,46.443]}},{"Airport Name":"SACHS HARBOUR","City\/Town":"SACHS HARBOUR","Country":"CANADA","location":{"type":"Point","coordinates":[-125.243,71.994]}},{"Airport Name":"CAPE DORSET","City\/Town":"CAPE DORSET","Country":"CANADA","location":{"type":"Point","coordinates":[-76.527,64.23]}},{"Airport Name":"THOMPSON","City\/Town":"THOMPSON","Country":"CANADA","location":{"type":"Point","coordinates":[-97.864,55.801]}},{"Airport Name":"TRENTON","City\/Town":"TRENTON","Country":"CANADA","location":{"type":"Point","coordinates":[-77.528,44.119]}},{"Airport Name":"TIMMINS","City\/Town":"TIMMINS","Country":"CANADA","location":{"type":"Point","coordinates":[-81.377,48.57]}},{"Airport Name":"CITY CENTRE","City\/Town":"TORONTO","Country":"CANADA","location":{"type":"Point","coordinates":[-79.396,43.627]}},{"Airport Name":"TUKTOYAKTUK","City\/Town":"TUKTOYAKTUK","Country":"CANADA","location":{"type":"Point","coordinates":[-133.026,69.433]}},{"Airport Name":"MONTREAL INTERNATIONAL DORVAL","City\/Town":"MONTREAL","Country":"CANADA","location":{"type":"Point","coordinates":[-73.741,45.468]}},{"Airport Name":"REPULSE BAY","City\/Town":"REPULSE BAY","Country":"CANADA","location":{"type":"Point","coordinates":[-86.225,66.521]}},{"Airport Name":"HALL BEACH","City\/Town":"HALL BEACH","Country":"CANADA","location":{"type":"Point","coordinates":[-81.244,68.776]}},{"Airport Name":"ROUYN NORANDA","City\/Town":"ROUYN","Country":"CANADA","location":{"type":"Point","coordinates":[-78.836,48.206]}},{"Airport Name":"LA RONGE","City\/Town":"LA RONGE","Country":"CANADA","location":{"type":"Point","coordinates":[-105.262,55.151]}},{"Airport Name":"VERMILION","City\/Town":"VERMILLION","Country":"CANADA","location":{"type":"Point","coordinates":[-110.824,53.356]}},{"Airport Name":"QIKIQTARJUAQ","City\/Town":"BROUGHTON ISLAND","Country":"CANADA","location":{"type":"Point","coordinates":[-64.031,67.546]}},{"Airport Name":"VAL D OR","City\/Town":"VAL D'OR","Country":"CANADA","location":{"type":"Point","coordinates":[-77.783,48.053]}},{"Airport Name":"KUUJJUAQ","City\/Town":"QUUJJUAQ","Country":"CANADA","location":{"type":"Point","coordinates":[-68.427,58.096]}},{"Airport Name":"NORMAN WELLS","City\/Town":"NORMAN WELLS","Country":"CANADA","location":{"type":"Point","coordinates":[-126.8,65.282]}},{"Airport Name":"VANCOUVER INTERNATIONAL","City\/Town":"VANCOUVER","Country":"CANADA","location":{"type":"Point","coordinates":[-123.182,49.195]}},{"Airport Name":"BUFFALO NARROWS","City\/Town":"BUFFALO NARROWS","Country":"CANADA","location":{"type":"Point","coordinates":[-108.418,55.842]}},{"Airport Name":"WIARTON","City\/Town":"WIARTON","Country":"CANADA","location":{"type":"Point","coordinates":[-81.107,44.746]}},{"Airport Name":"PETAWAWA","City\/Town":"PETAWAWA","Country":"CANADA","location":{"type":"Point","coordinates":[-77.319,45.952]}},{"Airport Name":"WINNIPEG INTERNATIONAL","City\/Town":"WINNIPEG","Country":"CANADA","location":{"type":"Point","coordinates":[-97.234,49.91]}},{"Airport Name":"WABUSH","City\/Town":"WABUSH","Country":"CANADA","location":{"type":"Point","coordinates":[-66.864,52.922]}},{"Airport Name":"WILLIAMS LAKE","City\/Town":"WILLIAMS LAKE","Country":"CANADA","location":{"type":"Point","coordinates":[-122.054,52.183]}},{"Airport Name":"WRIGLEY","City\/Town":"WRIGLEY","Country":"CANADA","location":{"type":"Point","coordinates":[-123.437,63.209]}},{"Airport Name":"CRANBROOK","City\/Town":"CRANBROOK","Country":"CANADA","location":{"type":"Point","coordinates":[-115.782,49.61]}},{"Airport Name":"EDMONTON CITY CENTRE","City\/Town":"EDMONTON","Country":"CANADA","location":{"type":"Point","coordinates":[-113.521,53.573]}},{"Airport Name":"SASKATOON J G DIEFENBAKER INTERNATIONAL","City\/Town":"SASKATOON","Country":"CANADA","location":{"type":"Point","coordinates":[-106.7,52.171]}},{"Airport Name":"MEDICINE HAT","City\/Town":"MEDICINE HAT","Country":"CANADA","location":{"type":"Point","coordinates":[-110.721,50.019]}},{"Airport Name":"FORT ST JOHN","City\/Town":"FORT SAINT JOHN","Country":"CANADA","location":{"type":"Point","coordinates":[-120.74,56.238]}},{"Airport Name":"SIOUX LOOKOUT","City\/Town":"SIOUX LOOKOUT","Country":"CANADA","location":{"type":"Point","coordinates":[-91.904,50.114]}},{"Airport Name":"PANGNIRTUNG","City\/Town":"PANGNIRTUNG","Country":"CANADA","location":{"type":"Point","coordinates":[-65.714,66.145]}},{"Airport Name":"TIMISKAMING RGNL","City\/Town":"EARLTON","Country":"CANADA","location":{"type":"Point","coordinates":[-79.849,47.695]}},{"Airport Name":"PRINCE GEORGE","City\/Town":"PRINCE GEORGE","Country":"CANADA","location":{"type":"Point","coordinates":[-122.679,53.889]}},{"Airport Name":"TERRACE","City\/Town":"TERRACE","Country":"CANADA","location":{"type":"Point","coordinates":[-128.577,54.466]}},{"Airport Name":"LONDON","City\/Town":"LONDON","Country":"CANADA","location":{"type":"Point","coordinates":[-81.154,43.036]}},{"Airport Name":"ABBOTSFORD","City\/Town":"ABBOTSFORD","Country":"CANADA","location":{"type":"Point","coordinates":[-122.363,49.025]}},{"Airport Name":"WHITEHORSE INTERNATIONAL","City\/Town":"WHITEHORSE","Country":"CANADA","location":{"type":"Point","coordinates":[-135.068,60.709]}},{"Airport Name":"NORTH BAY","City\/Town":"NORTH BAY","Country":"CANADA","location":{"type":"Point","coordinates":[-79.423,46.364]}},{"Airport Name":"CALGARY INTERNATIONAL","City\/Town":"CALGARY","Country":"CANADA","location":{"type":"Point","coordinates":[-114.02,51.114]}},{"Airport Name":"SMITHERS","City\/Town":"SMITHERS","Country":"CANADA","location":{"type":"Point","coordinates":[-127.183,54.825]}},{"Airport Name":"FORT NELSON","City\/Town":"FORT NELSON","Country":"CANADA","location":{"type":"Point","coordinates":[-122.597,58.836]}},{"Airport Name":"PENTICTON","City\/Town":"PENTICTON","Country":"CANADA","location":{"type":"Point","coordinates":[-119.602,49.463]}},{"Airport Name":"CHARLOTTETOWN","City\/Town":"CHARLOTTETOWN","Country":"CANADA","location":{"type":"Point","coordinates":[-63.121,46.29]}},{"Airport Name":"TALOYOAK","City\/Town":"SPENCE BAY","Country":"CANADA","location":{"type":"Point","coordinates":[-93.577,69.547]}},{"Airport Name":"VICTORIA INTERNATIONAL","City\/Town":"VICTORIA","Country":"CANADA","location":{"type":"Point","coordinates":[-123.426,48.647]}},{"Airport Name":"LYNN LAKE","City\/Town":"LYNN LAKE","Country":"CANADA","location":{"type":"Point","coordinates":[-101.076,56.864]}},{"Airport Name":"SWIFT CURRENT","City\/Town":"SWIFT CURRENT","Country":"CANADA","location":{"type":"Point","coordinates":[-107.691,50.292]}},{"Airport Name":"CHURCHILL","City\/Town":"CHURCHILL","Country":"CANADA","location":{"type":"Point","coordinates":[-94.065,58.739]}},{"Airport Name":"GOOSE BAY","City\/Town":"GOOSE BAY","Country":"CANADA","location":{"type":"Point","coordinates":[-60.426,53.319]}},{"Airport Name":"ST JOHNS INTERNATIONAL","City\/Town":"ST. JOHN'S","Country":"CANADA","location":{"type":"Point","coordinates":[-52.752,47.619]}},{"Airport Name":"KAPUSKASING","City\/Town":"KAPUSKASING","Country":"CANADA","location":{"type":"Point","coordinates":[-82.468,49.414]}},{"Airport Name":"ARMSTRONG","City\/Town":"ARMSTRONG","Country":"CANADA","location":{"type":"Point","coordinates":[-88.91,50.29]}},{"Airport Name":"MONT JOLI","City\/Town":"MONT JOLI","Country":"CANADA","location":{"type":"Point","coordinates":[-68.208,48.609]}},{"Airport Name":"LESTER B PEARSON INTERNATIONAL","City\/Town":"TORONTO","Country":"CANADA","location":{"type":"Point","coordinates":[-79.631,43.677]}},{"Airport Name":"DOWNSVIEW","City\/Town":"TORONTO","Country":"CANADA","location":{"type":"Point","coordinates":[-79.466,43.742]}},{"Airport Name":"GORE BAY MANITOULIN","City\/Town":"GORE BAY","Country":"CANADA","location":{"type":"Point","coordinates":[-82.568,45.885]}},{"Airport Name":"YELLOWKNIFE","City\/Town":"YELLOWKNIFE","Country":"CANADA","location":{"type":"Point","coordinates":[-114.44,62.463]}},{"Airport Name":"SLAVE LAKE","City\/Town":"SLAVE LAKE","Country":"CANADA","location":{"type":"Point","coordinates":[-114.778,55.293]}},{"Airport Name":"SANDSPIT","City\/Town":"SANDSPIT","Country":"CANADA","location":{"type":"Point","coordinates":[-131.814,53.254]}},{"Airport Name":"CHRIS HADFIELD","City\/Town":"SARNIA","Country":"CANADA","location":{"type":"Point","coordinates":[-82.309,42.999]}},{"Airport Name":"PORT HARDY","City\/Town":"PORT HARDY","Country":"CANADA","location":{"type":"Point","coordinates":[-127.367,50.681]}},{"Airport Name":"WHITECOURT","City\/Town":"WHITECOURT","Country":"CANADA","location":{"type":"Point","coordinates":[-115.787,54.144]}},{"Airport Name":"SEPT ILES","City\/Town":"SEPT-ILES","Country":"CANADA","location":{"type":"Point","coordinates":[-66.266,50.223]}},{"Airport Name":"TESLIN","City\/Town":"TESLIN","Country":"CANADA","location":{"type":"Point","coordinates":[-132.743,60.173]}},{"Airport Name":"GREENWOOD","City\/Town":"GREENWOOD","Country":"CANADA","location":{"type":"Point","coordinates":[-64.917,44.984]}},{"Airport Name":"FARO","City\/Town":"FARO","Country":"CANADA","location":{"type":"Point","coordinates":[-133.376,62.208]}},{"Airport Name":"FORT MCPHERSON","City\/Town":"FORT MCPHERSON","Country":"CANADA","location":{"type":"Point","coordinates":[-134.86,67.408]}},{"Airport Name":"BLIDA","City\/Town":"BLIDA","Country":"ALGERIA","location":{"type":"Point","coordinates":[2.814,36.504]}},{"Airport Name":"BOU SAADA","City\/Town":"BOU SAADA","Country":"ALGERIA","location":{"type":"Point","coordinates":[4.206,35.333]}},{"Airport Name":"SOUMMAM","City\/Town":"BEJAJA","Country":"ALGERIA","location":{"type":"Point","coordinates":[5.07,36.712]}},{"Airport Name":"HOUARI BOUMEDIENE","City\/Town":"ALGIER","Country":"ALGERIA","location":{"type":"Point","coordinates":[3.215,36.691]}},{"Airport Name":"TISKA","City\/Town":"DJANET","Country":"ALGERIA","location":{"type":"Point","coordinates":[9.452,24.293]}},{"Airport Name":"BOUFARIK","City\/Town":"BOUFARIK","Country":"ALGERIA","location":{"type":"Point","coordinates":[2.876,36.546]}},{"Airport Name":"TELERGHMA","City\/Town":"TELERGMA","Country":"ALGERIA","location":{"type":"Point","coordinates":[6.364,36.109]}},{"Airport Name":"REGGANE","City\/Town":"REGGAN","Country":"ALGERIA","location":{"type":"Point","coordinates":[0.286,26.71]}},{"Airport Name":"ILLIZI","City\/Town":"ILLIZI","Country":"ALGERIA","location":{"type":"Point","coordinates":[8.484,26.573]}},{"Airport Name":"AIN OUSSERA","City\/Town":"AIN OUSSERA","Country":"ALGERIA","location":{"type":"Point","coordinates":[2.879,35.525]}},{"Airport Name":"SETIF AIN ARNAT","City\/Town":"SETIF","Country":"ALGERIA","location":{"type":"Point","coordinates":[5.324,36.178]}},{"Airport Name":"TAMANRASSET","City\/Town":"TAMANRASSET","Country":"ALGERIA","location":{"type":"Point","coordinates":[5.451,22.811]}},{"Airport Name":"JIJEL","City\/Town":"JIJEL","Country":"ALGERIA","location":{"type":"Point","coordinates":[5.873,36.795]}},{"Airport Name":"MECHERIA","City\/Town":"MECHERIA","Country":"ALGERIA","location":{"type":"Point","coordinates":[-0.242,33.536]}},{"Airport Name":"RELIZANE","City\/Town":"RELIZANE","Country":"ALGERIA","location":{"type":"Point","coordinates":[0.626,35.752]}},{"Airport Name":"ANNABA","City\/Town":"ANNABA","Country":"ALGERIA","location":{"type":"Point","coordinates":[7.809,36.822]}},{"Airport Name":"MOHAMED BOUDIAF INTERNATIONAL","City\/Town":"CONSTANTINE","Country":"ALGERIA","location":{"type":"Point","coordinates":[6.624,36.277]}},{"Airport Name":"CHEIKH LARBI TEBESSI","City\/Town":"TEBESSA","Country":"ALGERIA","location":{"type":"Point","coordinates":[8.121,35.431]}},{"Airport Name":"HASSI R MEL","City\/Town":"TILREMPT","Country":"ALGERIA","location":{"type":"Point","coordinates":[3.312,32.93]}},{"Airport Name":"BOU CHEKIF","City\/Town":"TIARET","Country":"ALGERIA","location":{"type":"Point","coordinates":[1.463,35.341]}},{"Airport Name":"BOU SFER","City\/Town":"BOU SFER","Country":"ALGERIA","location":{"type":"Point","coordinates":[-0.805,35.735]}},{"Airport Name":"TINDOUF","City\/Town":"TINDOUF","Country":"ALGERIA","location":{"type":"Point","coordinates":[-8.167,27.7]}},{"Airport Name":"ECH CHELIFF","City\/Town":"ECH-CHELIFF","Country":"ALGERIA","location":{"type":"Point","coordinates":[1.332,36.213]}},{"Airport Name":"TAFARAOUI","City\/Town":"ORAN","Country":"ALGERIA","location":{"type":"Point","coordinates":[-0.532,35.542]}},{"Airport Name":"ZENATA","City\/Town":"TLEMCEN","Country":"ALGERIA","location":{"type":"Point","coordinates":[-1.45,35.017]}},{"Airport Name":"ES SENIA","City\/Town":"ORAN","Country":"ALGERIA","location":{"type":"Point","coordinates":[-0.621,35.624]}},{"Airport Name":"SIDI BEL ABBES","City\/Town":"SIDI BEL ABBES","Country":"ALGERIA","location":{"type":"Point","coordinates":[-0.593,35.172]}},{"Airport Name":"GHRISS","City\/Town":"GHRISS","Country":"ALGERIA","location":{"type":"Point","coordinates":[0.147,35.208]}},{"Airport Name":"TOUAT CHEIKH SIDI MOHAMED BELKEBIR","City\/Town":"ADRAR","Country":"ALGERIA","location":{"type":"Point","coordinates":[-0.186,27.837]}},{"Airport Name":"BISKRA","City\/Town":"BISKRA","Country":"ALGERIA","location":{"type":"Point","coordinates":[5.738,34.793]}},{"Airport Name":"EL GOLEA","City\/Town":"EL GOLEA","Country":"ALGERIA","location":{"type":"Point","coordinates":[2.859,30.571]}},{"Airport Name":"NOUMERATE","City\/Town":"GHARDAIA","Country":"ALGERIA","location":{"type":"Point","coordinates":[3.794,32.384]}},{"Airport Name":"OUED IRARA","City\/Town":"HASSI-MESSAOUD","Country":"ALGERIA","location":{"type":"Point","coordinates":[6.14,31.673]}},{"Airport Name":"IN SALAH","City\/Town":"IN SALAH","Country":"ALGERIA","location":{"type":"Point","coordinates":[2.512,27.251]}},{"Airport Name":"SIDI MAHDI","City\/Town":"TOUGGOURT","Country":"ALGERIA","location":{"type":"Point","coordinates":[6.089,33.068]}},{"Airport Name":"LAGHOUAT","City\/Town":"LAGHOUAT","Country":"ALGERIA","location":{"type":"Point","coordinates":[2.927,33.764]}},{"Airport Name":"TIMIMOUN","City\/Town":"TIMIMOUN","Country":"ALGERIA","location":{"type":"Point","coordinates":[0.276,29.237]}},{"Airport Name":"OUARGLA","City\/Town":"OUARGLA","Country":"ALGERIA","location":{"type":"Point","coordinates":[5.413,31.917]}},{"Airport Name":"IN AMENAS","City\/Town":"ZARZAITINE","Country":"ALGERIA","location":{"type":"Point","coordinates":[9.643,28.051]}},{"Airport Name":"COTONOU CADJEHOUN","City\/Town":"COTONOU","Country":"BENIN","location":{"type":"Point","coordinates":[2.384,6.357]}},{"Airport Name":"PARAKOU","City\/Town":"PARAKOU","Country":"BENIN","location":{"type":"Point","coordinates":[2.609,9.357]}},{"Airport Name":"OUAGADOUGOU","City\/Town":"OUAGADOUGOU","Country":"BURKINA FASO","location":{"type":"Point","coordinates":[-1.512,12.353]}},{"Airport Name":"BOBO DIOULASSO","City\/Town":"BOBO-DIOULASSO","Country":"BURKINA FASO","location":{"type":"Point","coordinates":[-4.331,11.16]}},{"Airport Name":"KOTOKA INTERNATIONAL","City\/Town":"ACCRA","Country":"GHANA","location":{"type":"Point","coordinates":[-0.168,5.603]}},{"Airport Name":"TAMALE","City\/Town":"TAMALE","Country":"GHANA","location":{"type":"Point","coordinates":[-0.863,9.563]}},{"Airport Name":"WA","City\/Town":"WA","Country":"GHANA","location":{"type":"Point","coordinates":[-2.507,10.082]}},{"Airport Name":"SUNYANI","City\/Town":"SUNYANI","Country":"GHANA","location":{"type":"Point","coordinates":[-2.329,7.362]}},{"Airport Name":"TAKORADI","City\/Town":"TAKORADI","Country":"GHANA","location":{"type":"Point","coordinates":[-1.775,4.893]}},{"Airport Name":"ABIDJAN FELIX HOUPHOUET BOIGNY INTERNATIONAL","City\/Town":"ABIDJAN","Country":"IVORY COAST","location":{"type":"Point","coordinates":[-3.926,5.26]}},{"Airport Name":"BOUAKE","City\/Town":"BOUAKE","Country":"IVORY COAST","location":{"type":"Point","coordinates":[-5.074,7.739]}},{"Airport Name":"DALOA","City\/Town":"DALOA","Country":"IVORY COAST","location":{"type":"Point","coordinates":[-6.473,6.792]}},{"Airport Name":"KORHOGO","City\/Town":"KORHOGO","Country":"IVORY COAST","location":{"type":"Point","coordinates":[-5.556,9.387]}},{"Airport Name":"MAN","City\/Town":"MAN","Country":"IVORY COAST","location":{"type":"Point","coordinates":[-7.587,7.272]}},{"Airport Name":"SAN PEDRO","City\/Town":"SAN PEDRO","Country":"IVORY COAST","location":{"type":"Point","coordinates":[-6.661,4.747]}},{"Airport Name":"YAMOUSSOUKRO","City\/Town":"YAMOUSSOUKRO","Country":"IVORY COAST","location":{"type":"Point","coordinates":[-5.366,6.903]}},{"Airport Name":"ABUJA NNAMDI AZIKIWE INTERNATIONAL","City\/Town":"ABUJA","Country":"NIGERIA","location":{"type":"Point","coordinates":[7.263,9.007]}},{"Airport Name":"AKURE","City\/Town":"AKURE","Country":"NIGERIA","location":{"type":"Point","coordinates":[5.301,7.247]}},{"Airport Name":"BENIN","City\/Town":"BENIN","Country":"NIGERIA","location":{"type":"Point","coordinates":[5.599,6.317]}},{"Airport Name":"CALABAR","City\/Town":"CALABAR","Country":"NIGERIA","location":{"type":"Point","coordinates":[8.347,4.976]}},{"Airport Name":"ENUGU","City\/Town":"ENUGU","Country":"NIGERIA","location":{"type":"Point","coordinates":[7.562,6.474]}},{"Airport Name":"GUSAU","City\/Town":"GUSAU","Country":"NIGERIA","location":{"type":"Point","coordinates":[6.696,12.172]}},{"Airport Name":"IBADAN","City\/Town":"IBADAN","Country":"NIGERIA","location":{"type":"Point","coordinates":[3.978,7.362]}},{"Airport Name":"ILORIN","City\/Town":"ILORIN","Country":"NIGERIA","location":{"type":"Point","coordinates":[4.494,8.44]}},{"Airport Name":"JOS","City\/Town":"JOS","Country":"NIGERIA","location":{"type":"Point","coordinates":[8.869,9.64]}},{"Airport Name":"KADUNA","City\/Town":"KADUNA","Country":"NIGERIA","location":{"type":"Point","coordinates":[7.32,10.696]}},{"Airport Name":"KANO MALLAM AMINU INTERNATIONAL","City\/Town":"KANO","Country":"NIGERIA","location":{"type":"Point","coordinates":[8.524,12.047]}},{"Airport Name":"MAIDUGURI","City\/Town":"MAIDUGURI","Country":"NIGERIA","location":{"type":"Point","coordinates":[13.081,11.855]}},{"Airport Name":"MAKURDI","City\/Town":"MAKURDI","Country":"NIGERIA","location":{"type":"Point","coordinates":[8.614,7.704]}},{"Airport Name":"LAGOS MURTALA MUHAMMED","City\/Town":"LAGOS","Country":"NIGERIA","location":{"type":"Point","coordinates":[3.321,6.577]}},{"Airport Name":"MINNA NEW","City\/Town":"MINNA","Country":"NIGERIA","location":{"type":"Point","coordinates":[6.462,9.652]}},{"Airport Name":"PORT HARCOURT INTERNATIONAL","City\/Town":"PORT HARTCOURT","Country":"NIGERIA","location":{"type":"Point","coordinates":[6.949,5.015]}},{"Airport Name":"SADIQ ABUBAKAR III INTERNATIONAL","City\/Town":"SOKOTO","Country":"NIGERIA","location":{"type":"Point","coordinates":[5.207,12.916]}},{"Airport Name":"YOLA","City\/Town":"YOLA","Country":"NIGERIA","location":{"type":"Point","coordinates":[12.43,9.26]}},{"Airport Name":"ZARIA","City\/Town":"ZARIA","Country":"NIGERIA","location":{"type":"Point","coordinates":[7.686,11.13]}},{"Airport Name":"MARADI","City\/Town":"MARADI","Country":"NIGER","location":{"type":"Point","coordinates":[7.127,13.502]}},{"Airport Name":"DIORI HAMANI","City\/Town":"NIAMEY","Country":"NIGER","location":{"type":"Point","coordinates":[2.184,13.481]}},{"Airport Name":"TAHOUA","City\/Town":"TAHOUA","Country":"NIGER","location":{"type":"Point","coordinates":[5.265,14.876]}},{"Airport Name":"MANU DAYAK","City\/Town":"AGADEZ","Country":"NIGER","location":{"type":"Point","coordinates":[7.997,16.965]}},{"Airport Name":"DIRKOU","City\/Town":"DIRKOU","Country":"NIGER","location":{"type":"Point","coordinates":[12.869,18.969]}},{"Airport Name":"DIFFA","City\/Town":"DIFFA","Country":"NIGER","location":{"type":"Point","coordinates":[12.627,13.373]}},{"Airport Name":"ZINDER","City\/Town":"ZINDER","Country":"NIGER","location":{"type":"Point","coordinates":[8.984,13.779]}},{"Airport Name":"TANOUT","City\/Town":"TANOUT","Country":"NIGER","location":{"type":"Point","coordinates":[8.767,14.999]}},{"Airport Name":"HABIB BOURGUIBA INTERNATIONAL","City\/Town":"MONASTIR","Country":"TUNISIA","location":{"type":"Point","coordinates":[10.755,35.758]}},{"Airport Name":"CARTHAGE","City\/Town":"TUNIS","Country":"TUNISIA","location":{"type":"Point","coordinates":[10.227,36.851]}},{"Airport Name":"SIDI AHMED AIR BASE","City\/Town":"BIZERTE","Country":"TUNISIA","location":{"type":"Point","coordinates":[9.791,37.245]}},{"Airport Name":"REMADA","City\/Town":"REMADA","Country":"TUNISIA","location":{"type":"Point","coordinates":[10.382,32.306]}},{"Airport Name":"GAFSA","City\/Town":"GAFSA","Country":"TUNISIA","location":{"type":"Point","coordinates":[8.822,34.422]}},{"Airport Name":"GABES","City\/Town":"GABES","Country":"TUNISIA","location":{"type":"Point","coordinates":[10.103,33.877]}},{"Airport Name":"BORDJ EL AMRI","City\/Town":"BORDJ EL AMRI","Country":"TUNISIA","location":{"type":"Point","coordinates":[9.943,36.721]}},{"Airport Name":"ZARZIS","City\/Town":"DJERBA","Country":"TUNISIA","location":{"type":"Point","coordinates":[10.775,33.875]}},{"Airport Name":"EL BORMA","City\/Town":"EL BORMA","Country":"TUNISIA","location":{"type":"Point","coordinates":[9.254,31.704]}},{"Airport Name":"THYNA","City\/Town":"SFAX","Country":"TUNISIA","location":{"type":"Point","coordinates":[10.691,34.718]}},{"Airport Name":"NEFTA","City\/Town":"TOZEUR","Country":"TUNISIA","location":{"type":"Point","coordinates":[8.111,33.94]}},{"Airport Name":"NIAMTOUGOU","City\/Town":"NIATOUGOU","Country":"TOGO","location":{"type":"Point","coordinates":[1.091,9.767]}},{"Airport Name":"LOME TOKOIN","City\/Town":"LOME","Country":"TOGO","location":{"type":"Point","coordinates":[1.254,6.166]}},{"Airport Name":"DEURNE","City\/Town":"ANTWERP","Country":"BELGIUM","location":{"type":"Point","coordinates":[4.463,51.19]}},{"Airport Name":"BEAUVECHAIN","City\/Town":"BEAUVECHAIN","Country":"BELGIUM","location":{"type":"Point","coordinates":[4.768,50.759]}},{"Airport Name":"KLEINE BROGEL","City\/Town":"KLEINE BROGEL","Country":"BELGIUM","location":{"type":"Point","coordinates":[5.471,51.168]}},{"Airport Name":"BRUSSELS NATL","City\/Town":"BRUSSELS","Country":"BELGIUM","location":{"type":"Point","coordinates":[4.499,50.902]}},{"Airport Name":"BRAASCHAAT","City\/Town":"BRASSCHAAT","Country":"BELGIUM","location":{"type":"Point","coordinates":[4.5,51.333]}},{"Airport Name":"BERTRIX JEHONVILLE","City\/Town":"BERTRIX","Country":"BELGIUM","location":{"type":"Point","coordinates":[5.229,49.887]}},{"Airport Name":"BRUSSELS SOUTH","City\/Town":"CHARLEROI","Country":"BELGIUM","location":{"type":"Point","coordinates":[4.454,50.459]}},{"Airport Name":"CHIEVRES AB","City\/Town":"CHIEVRES","Country":"BELGIUM","location":{"type":"Point","coordinates":[3.831,50.576]}},{"Airport Name":"KOKSIJDE","City\/Town":"KOKSIJDE","Country":"BELGIUM","location":{"type":"Point","coordinates":[2.653,51.09]}},{"Airport Name":"FLORENNES","City\/Town":"FLORENNES","Country":"BELGIUM","location":{"type":"Point","coordinates":[4.649,50.244]}},{"Airport Name":"WEVELGEM","City\/Town":"KORTRIJK-VEVELGEM","Country":"BELGIUM","location":{"type":"Point","coordinates":[3.208,50.818]}},{"Airport Name":"LIEGE","City\/Town":"LIEGE","Country":"BELGIUM","location":{"type":"Point","coordinates":[5.443,50.637]}},{"Airport Name":"OOSTENDE","City\/Town":"OSTEND","Country":"BELGIUM","location":{"type":"Point","coordinates":[2.862,51.199]}},{"Airport Name":"ZUTENDAAL","City\/Town":"ZUTENDAAL","Country":"BELGIUM","location":{"type":"Point","coordinates":[5.592,50.948]}},{"Airport Name":"ST TRUIDEN","City\/Town":"SINT-TRUIDEN","Country":"BELGIUM","location":{"type":"Point","coordinates":[5.193,50.788]}},{"Airport Name":"URSEL","City\/Town":"URSEL","Country":"BELGIUM","location":{"type":"Point","coordinates":[3.474,51.144]}},{"Airport Name":"WEELDE","City\/Town":"WEELDE","Country":"BELGIUM","location":{"type":"Point","coordinates":[4.961,51.395]}},{"Airport Name":"ZOERSEL","City\/Town":"ZOERSEL","Country":"BELGIUM","location":{"type":"Point","coordinates":[4.755,51.266]}},{"Airport Name":"BAUTZEN","City\/Town":"BAUTZEN","Country":"GERMANY","location":{"type":"Point","coordinates":[14.52,51.193]}},{"Airport Name":"ALTENBURG NOBITZ","City\/Town":"ALTENBURG","Country":"GERMANY","location":{"type":"Point","coordinates":[12.506,50.982]}},{"Airport Name":"DESSAU","City\/Town":"DESSAU","Country":"GERMANY","location":{"type":"Point","coordinates":[12.186,51.832]}},{"Airport Name":"EISENHUTTENSTADT","City\/Town":"EISENHUETTENSTADT","Country":"GERMANY","location":{"type":"Point","coordinates":[14.586,52.197]}},{"Airport Name":"HERINGSDORF","City\/Town":"HERINGSDORF","Country":"GERMANY","location":{"type":"Point","coordinates":[14.152,53.879]}},{"Airport Name":"GROSSENHAIN","City\/Town":"SUHL","Country":"GERMANY","location":{"type":"Point","coordinates":[13.555,51.308]}},{"Airport Name":"MERSEBURG","City\/Town":"MUEHLHAUSEN","Country":"GERMANY","location":{"type":"Point","coordinates":[11.941,51.363]}},{"Airport Name":"HALLE OPPIN","City\/Town":"HALLE","Country":"GERMANY","location":{"type":"Point","coordinates":[12.053,51.552]}},{"Airport Name":"RIESA GOHLIS","City\/Town":"RIESA","Country":"GERMANY","location":{"type":"Point","coordinates":[13.359,51.294]}},{"Airport Name":"RECHLIN LARZ","City\/Town":"RECHLIN-LAERZ","Country":"GERMANY","location":{"type":"Point","coordinates":[12.753,53.306]}},{"Airport Name":"STRAUSBERG","City\/Town":"STRAUSBERG","Country":"GERMANY","location":{"type":"Point","coordinates":[13.916,52.58]}},{"Airport Name":"SCHONHAGEN","City\/Town":"SCHOENHAGEN","Country":"GERMANY","location":{"type":"Point","coordinates":[13.159,52.203]}},{"Airport Name":"COCHSTEDT SCHNEIDLINGEN","City\/Town":"COCHSTEDT","Country":"GERMANY","location":{"type":"Point","coordinates":[11.418,51.856]}},{"Airport Name":"GOLDSBORO WAYNE MUNI","City\/Town":"GOTHA OST","Country":"GERMANY","location":{"type":"Point","coordinates":[-77.965,35.461]}},{"Airport Name":"BARTH","City\/Town":"BARTH","Country":"GERMANY","location":{"type":"Point","coordinates":[12.71,54.338]}},{"Airport Name":"JENA SCHONGLEINA","City\/Town":"JENA","Country":"GERMANY","location":{"type":"Point","coordinates":[11.714,50.917]}},{"Airport Name":"KYRITZ","City\/Town":"KYRITZ","Country":"GERMANY","location":{"type":"Point","coordinates":[12.425,52.919]}},{"Airport Name":"MAGDEBURG","City\/Town":"MAGDEBURG","Country":"GERMANY","location":{"type":"Point","coordinates":[11.626,52.074]}},{"Airport Name":"BRANDIS WALDPOLENZ","City\/Town":"NEUBRANDENBURG","Country":"GERMANY","location":{"type":"Point","coordinates":[12.657,51.328]}},{"Airport Name":"ROTHENBURG GORLITZ","City\/Town":"ROTHENBURG\/OL","Country":"GERMANY","location":{"type":"Point","coordinates":[14.952,51.364]}},{"Airport Name":"ANKLAM","City\/Town":"ANKLAM","Country":"GERMANY","location":{"type":"Point","coordinates":[13.669,53.833]}},{"Airport Name":"COTTBUS DREWITZ","City\/Town":"COTTBUS","Country":"GERMANY","location":{"type":"Point","coordinates":[14.532,51.889]}},{"Airport Name":"KOTHEN","City\/Town":"KOETHEN","Country":"GERMANY","location":{"type":"Point","coordinates":[11.962,51.721]}},{"Airport Name":"KAMENZ","City\/Town":"KAMENZ","Country":"GERMANY","location":{"type":"Point","coordinates":[14.129,51.296]}},{"Airport Name":"SCHONEFELD","City\/Town":"BERLIN","Country":"GERMANY","location":{"type":"Point","coordinates":[13.523,52.38]}},{"Airport Name":"DRESDEN","City\/Town":"DRESDEN","Country":"GERMANY","location":{"type":"Point","coordinates":[13.767,51.133]}},{"Airport Name":"ERFURT","City\/Town":"ERFURT","Country":"GERMANY","location":{"type":"Point","coordinates":[10.958,50.98]}},{"Airport Name":"FRANKFURT MAIN","City\/Town":"FRANKFURT","Country":"GERMANY","location":{"type":"Point","coordinates":[8.543,50.026]}},{"Airport Name":"MUNSTER OSNABRUCK","City\/Town":"MUENSTER\/OSNABRUECK","Country":"GERMANY","location":{"type":"Point","coordinates":[7.685,52.134]}},{"Airport Name":"HAMBURG","City\/Town":"HAMBURG","Country":"GERMANY","location":{"type":"Point","coordinates":[9.988,53.63]}},{"Airport Name":"TEMPELHOF","City\/Town":"BERLIN","Country":"GERMANY","location":{"type":"Point","coordinates":[13.404,52.473]}},{"Airport Name":"KOLN BONN","City\/Town":"COLOGNE","Country":"GERMANY","location":{"type":"Point","coordinates":[7.143,50.866]}},{"Airport Name":"DUSSELDORF","City\/Town":"DUESSELDORF","Country":"GERMANY","location":{"type":"Point","coordinates":[6.767,51.289]}},{"Airport Name":"MUNICH","City\/Town":"MUNICH","Country":"GERMANY","location":{"type":"Point","coordinates":[11.786,48.354]}},{"Airport Name":"NURNBERG","City\/Town":"NUERNBERG","Country":"GERMANY","location":{"type":"Point","coordinates":[11.078,49.499]}},{"Airport Name":"LEIPZIG HALLE","City\/Town":"LEIPZIG","Country":"GERMANY","location":{"type":"Point","coordinates":[12.236,51.424]}},{"Airport Name":"SAARBRUCKEN","City\/Town":"SAARBRUECKEN","Country":"GERMANY","location":{"type":"Point","coordinates":[7.109,49.214]}},{"Airport Name":"STUTTGART","City\/Town":"STUTTGART","Country":"GERMANY","location":{"type":"Point","coordinates":[9.222,48.69]}},{"Airport Name":"TEGEL","City\/Town":"BERLIN","Country":"GERMANY","location":{"type":"Point","coordinates":[13.287,52.559]}},{"Airport Name":"HANNOVER","City\/Town":"HANNOVER","Country":"GERMANY","location":{"type":"Point","coordinates":[9.685,52.461]}},{"Airport Name":"BREMEN","City\/Town":"BREMEN","Country":"GERMANY","location":{"type":"Point","coordinates":[8.787,53.047]}},{"Airport Name":"EGELSBACH","City\/Town":"EGELSBACH","Country":"GERMANY","location":{"type":"Point","coordinates":[8.644,49.961]}},{"Airport Name":"FRANKFURT HAHN","City\/Town":"HAHN","Country":"GERMANY","location":{"type":"Point","coordinates":[7.264,49.95]}},{"Airport Name":"MANNHEIM CITY","City\/Town":"MANNHEIM","Country":"GERMANY","location":{"type":"Point","coordinates":[8.514,49.473]}},{"Airport Name":"ALLENDORF EDER","City\/Town":"ALLENDORF","Country":"GERMANY","location":{"type":"Point","coordinates":[8.679,51.035]}},{"Airport Name":"WORMS","City\/Town":"WORMS","Country":"GERMANY","location":{"type":"Point","coordinates":[8.368,49.606]}},{"Airport Name":"MAINZ FINTHEN","City\/Town":"MAINZ","Country":"GERMANY","location":{"type":"Point","coordinates":[8.147,49.969]}},{"Airport Name":"EISENACH KINDEL","City\/Town":"EISENACH","Country":"GERMANY","location":{"type":"Point","coordinates":[10.473,50.993]}},{"Airport Name":"SIEGERLAND","City\/Town":"SIEGERLAND","Country":"GERMANY","location":{"type":"Point","coordinates":[8.082,50.708]}},{"Airport Name":"HAMBURG FINKENWERDER","City\/Town":"HAMBURG","Country":"GERMANY","location":{"type":"Point","coordinates":[9.835,53.535]}},{"Airport Name":"KIEL HOLTENAU","City\/Town":"KIEL","Country":"GERMANY","location":{"type":"Point","coordinates":[10.145,54.379]}},{"Airport Name":"LUBECK BLANKENSEE","City\/Town":"LUEBECK","Country":"GERMANY","location":{"type":"Point","coordinates":[10.719,53.805]}},{"Airport Name":"AACHEN MERZBRUCK","City\/Town":"AACHEN","Country":"GERMANY","location":{"type":"Point","coordinates":[6.187,50.823]}},{"Airport Name":"DAHLEMER BINZ","City\/Town":"DAHLEMER BINZ","Country":"GERMANY","location":{"type":"Point","coordinates":[6.528,50.406]}},{"Airport Name":"MEINERZHAGEN","City\/Town":"MEINERZHAGEN","Country":"GERMANY","location":{"type":"Point","coordinates":[7.602,51.099]}},{"Airport Name":"ARNSBERG MENDEN","City\/Town":"ARNSBERG","Country":"GERMANY","location":{"type":"Point","coordinates":[7.899,51.483]}},{"Airport Name":"KAMP LINTFORT","City\/Town":"KAMP","Country":"GERMANY","location":{"type":"Point","coordinates":[6.537,51.53]}},{"Airport Name":"ESSEN MULHEIM","City\/Town":"ESSEN","Country":"GERMANY","location":{"type":"Point","coordinates":[6.936,51.401]}},{"Airport Name":"MONCHENGLADBACH","City\/Town":"MOENCHENGLADBACH","Country":"GERMANY","location":{"type":"Point","coordinates":[6.504,51.23]}},{"Airport Name":"PADERBORN LIPPSTADT","City\/Town":"PADERBORN","Country":"GERMANY","location":{"type":"Point","coordinates":[8.616,51.614]}},{"Airport Name":"STADTLOHN VREDEN","City\/Town":"STADTLOHN","Country":"GERMANY","location":{"type":"Point","coordinates":[6.84,51.996]}},{"Airport Name":"DORTMUND","City\/Town":"DORTMUND","Country":"GERMANY","location":{"type":"Point","coordinates":[7.612,51.518]}},{"Airport Name":"AUGSBURG","City\/Town":"AUGSBURG","Country":"GERMANY","location":{"type":"Point","coordinates":[10.932,48.425]}},{"Airport Name":"BIBERACH AN DER RISS","City\/Town":"BIBERACH","Country":"GERMANY","location":{"type":"Point","coordinates":[9.763,48.111]}},{"Airport Name":"EGGENFELDEN","City\/Town":"EGGENFELDEN","Country":"GERMANY","location":{"type":"Point","coordinates":[12.724,48.396]}},{"Airport Name":"OBERPFAFFENHOFEN","City\/Town":"OBERPFAFFENHOFEN","Country":"GERMANY","location":{"type":"Point","coordinates":[11.283,48.081]}},{"Airport Name":"STRAUBING","City\/Town":"STRAUBING","Country":"GERMANY","location":{"type":"Point","coordinates":[12.518,48.901]}},{"Airport Name":"VILSHOFEN","City\/Town":"VILSHOFEN","Country":"GERMANY","location":{"type":"Point","coordinates":[13.195,48.636]}},{"Airport Name":"LEUTKIRCH UNTERZEIL","City\/Town":"LEUTKIRCH","Country":"GERMANY","location":{"type":"Point","coordinates":[10.014,47.859]}},{"Airport Name":"FRIEDRICHSHAFEN","City\/Town":"FRIEDRICHSHAFEN","Country":"GERMANY","location":{"type":"Point","coordinates":[9.511,47.671]}},{"Airport Name":"SCHWERIN PARCHIM","City\/Town":"PARCHIM","Country":"GERMANY","location":{"type":"Point","coordinates":[11.783,53.427]}},{"Airport Name":"STENDAL BORSTEL","City\/Town":"STENDAL","Country":"GERMANY","location":{"type":"Point","coordinates":[11.82,52.629]}},{"Airport Name":"AALEN HEIDENHEIM ELCHINGEN","City\/Town":"AALEN-HEIDENHEIM","Country":"GERMANY","location":{"type":"Point","coordinates":[10.264,48.778]}},{"Airport Name":"COBURG BRANDENSTEINSEBENE","City\/Town":"COBURG","Country":"GERMANY","location":{"type":"Point","coordinates":[10.996,50.263]}},{"Airport Name":"BAYREUTH","City\/Town":"BAYREUTH","Country":"GERMANY","location":{"type":"Point","coordinates":[11.638,49.984]}},{"Airport Name":"BURG FEUERSTEIN","City\/Town":"BURG FEUERSTEIN","Country":"GERMANY","location":{"type":"Point","coordinates":[11.132,49.794]}},{"Airport Name":"HOF PLAUEN","City\/Town":"HOF","Country":"GERMANY","location":{"type":"Point","coordinates":[11.855,50.289]}},{"Airport Name":"ROSENTHAL FIELD PLOSSEN","City\/Town":"ROSENTHAL","Country":"GERMANY","location":{"type":"Point","coordinates":[11.788,49.863]}},{"Airport Name":"HASSFURT SCHWEINFURT","City\/Town":"HASSFURT","Country":"GERMANY","location":{"type":"Point","coordinates":[10.529,50.018]}},{"Airport Name":"KOBLENZ WINNINGEN","City\/Town":"KOBLENZ","Country":"GERMANY","location":{"type":"Point","coordinates":[7.531,50.325]}},{"Airport Name":"TRIER FOHREN","City\/Town":"TRIER","Country":"GERMANY","location":{"type":"Point","coordinates":[6.789,49.863]}},{"Airport Name":"SPEYER","City\/Town":"SPEYER","Country":"GERMANY","location":{"type":"Point","coordinates":[8.451,49.302]}},{"Airport Name":"ZWEIBRUCKEN","City\/Town":"ZWEIBRUECKEN","Country":"GERMANY","location":{"type":"Point","coordinates":[7.401,49.209]}},{"Airport Name":"BADEN OOS","City\/Town":"BADEN-BADEN","Country":"GERMANY","location":{"type":"Point","coordinates":[8.187,48.791]}},{"Airport Name":"DONAUESCHINGEN VILLINGEN","City\/Town":"DONAUESCHINGEN","Country":"GERMANY","location":{"type":"Point","coordinates":[8.522,47.973]}},{"Airport Name":"FREIBURG","City\/Town":"FREIBURG","Country":"GERMANY","location":{"type":"Point","coordinates":[7.834,48.02]}},{"Airport Name":"KARLSRUHE FORCHHEIM","City\/Town":"KARLSRUHE","Country":"GERMANY","location":{"type":"Point","coordinates":[8.333,48.982]}},{"Airport Name":"MENGEN HOHENTENGEN","City\/Town":"MENGEN","Country":"GERMANY","location":{"type":"Point","coordinates":[9.373,48.054]}},{"Airport Name":"SCHWABISCH HALL HESSENTAL","City\/Town":"SCHWAEBISCH HALL","Country":"GERMANY","location":{"type":"Point","coordinates":[9.777,49.118]}},{"Airport Name":"FINSTERWALDE SCHACKSDORF","City\/Town":"SOEST","Country":"GERMANY","location":{"type":"Point","coordinates":[13.738,51.608]}},{"Airport Name":"BRAUNSCHWEIG","City\/Town":"BRAUNSCHWEIG","Country":"GERMANY","location":{"type":"Point","coordinates":[10.556,52.319]}},{"Airport Name":"KASSEL CALDEN","City\/Town":"KASSEL","Country":"GERMANY","location":{"type":"Point","coordinates":[9.378,51.408]}},{"Airport Name":"HILDESHEIM","City\/Town":"HILDESHEIM","Country":"GERMANY","location":{"type":"Point","coordinates":[9.946,52.177]}},{"Airport Name":"BREMERHAVEN","City\/Town":"BREMERHAVEN","Country":"GERMANY","location":{"type":"Point","coordinates":[8.573,53.503]}},{"Airport Name":"LEMWERDER","City\/Town":"LEMWERDER","Country":"GERMANY","location":{"type":"Point","coordinates":[8.623,53.143]}},{"Airport Name":"EMDEN","City\/Town":"EMDEN","Country":"GERMANY","location":{"type":"Point","coordinates":[7.227,53.391]}},{"Airport Name":"LEER PAPENBURG","City\/Town":"LEER","Country":"GERMANY","location":{"type":"Point","coordinates":[7.443,53.272]}},{"Airport Name":"WILHELMSHAVEN MARIENSIEL","City\/Town":"WILHELMSHAVEN","Country":"GERMANY","location":{"type":"Point","coordinates":[8.053,53.505]}},{"Airport Name":"BORKUM","City\/Town":"BORKUM","Country":"GERMANY","location":{"type":"Point","coordinates":[6.709,53.595]}},{"Airport Name":"NORDERNEY","City\/Town":"NORDERNEY","Country":"GERMANY","location":{"type":"Point","coordinates":[7.23,53.707]}},{"Airport Name":"FLENSBURG SCHAFERHAUS","City\/Town":"FLENSBURG","Country":"GERMANY","location":{"type":"Point","coordinates":[9.378,54.772]}},{"Airport Name":"RENDSBURG SCHACHTHOLM","City\/Town":"RENDSBURG","Country":"GERMANY","location":{"type":"Point","coordinates":[9.601,54.221]}},{"Airport Name":"WESTERLAND SYLT","City\/Town":"WESTERLAND","Country":"GERMANY","location":{"type":"Point","coordinates":[8.34,54.913]}},{"Airport Name":"AMARI","City\/Town":"ARMARI AIR FORCE BASE","Country":"ESTONIA","location":{"type":"Point","coordinates":[24.204,59.259]}},{"Airport Name":"KARDLA","City\/Town":"KARDLA","Country":"ESTONIA","location":{"type":"Point","coordinates":[22.831,58.991]}},{"Airport Name":"KURESSAARE","City\/Town":"KURESSAARE","Country":"ESTONIA","location":{"type":"Point","coordinates":[22.509,58.23]}},{"Airport Name":"PARNU","City\/Town":"PARNU","Country":"ESTONIA","location":{"type":"Point","coordinates":[24.473,58.419]}},{"Airport Name":"TALLINN","City\/Town":"TALLINN-ULEMISTE INTERNATIONAL","Country":"ESTONIA","location":{"type":"Point","coordinates":[24.833,59.413]}},{"Airport Name":"TARTU","City\/Town":"TARTU-ULENURME","Country":"ESTONIA","location":{"type":"Point","coordinates":[26.69,58.307]}},{"Airport Name":"ENONTEKIO","City\/Town":"ENONTEKIO","Country":"FINLAND","location":{"type":"Point","coordinates":[23.424,68.362]}},{"Airport Name":"EURA","City\/Town":"EURA","Country":"FINLAND","location":{"type":"Point","coordinates":[22.201,61.116]}},{"Airport Name":"HALLI","City\/Town":"HALLI","Country":"FINLAND","location":{"type":"Point","coordinates":[24.786,61.856]}},{"Airport Name":"HELSINKI MALMI","City\/Town":"HELSINKI","Country":"FINLAND","location":{"type":"Point","coordinates":[25.043,60.254]}},{"Airport Name":"HELSINKI VANTAA","City\/Town":"HELSINKI","Country":"FINLAND","location":{"type":"Point","coordinates":[24.956,60.32]}},{"Airport Name":"HAMEENKYRO","City\/Town":"HAMEENKYRO","Country":"FINLAND","location":{"type":"Point","coordinates":[23.074,61.689]}},{"Airport Name":"HANKO","City\/Town":"HANKO","Country":"FINLAND","location":{"type":"Point","coordinates":[23.083,59.849]}},{"Airport Name":"HYVINKAA","City\/Town":"HYVINKAA","Country":"FINLAND","location":{"type":"Point","coordinates":[24.881,60.654]}},{"Airport Name":"KIIKALA","City\/Town":"KIKALA","Country":"FINLAND","location":{"type":"Point","coordinates":[23.652,60.463]}},{"Airport Name":"IMMOLA","City\/Town":"IMMOLA","Country":"FINLAND","location":{"type":"Point","coordinates":[28.904,61.249]}},{"Airport Name":"KITEE","City\/Town":"KITEE","Country":"FINLAND","location":{"type":"Point","coordinates":[30.074,62.166]}},{"Airport Name":"IVALO","City\/Town":"IVALO","Country":"FINLAND","location":{"type":"Point","coordinates":[27.405,68.607]}},{"Airport Name":"JOENSUU","City\/Town":"JOENSUU","Country":"FINLAND","location":{"type":"Point","coordinates":[29.624,62.659]}},{"Airport Name":"JYVASKYLA","City\/Town":"JYVASKYLA","Country":"FINLAND","location":{"type":"Point","coordinates":[25.678,62.399]}},{"Airport Name":"KAUHAVA","City\/Town":"KAUHAVA","Country":"FINLAND","location":{"type":"Point","coordinates":[23.051,63.127]}},{"Airport Name":"KEMI TORNIO","City\/Town":"KEMI","Country":"FINLAND","location":{"type":"Point","coordinates":[24.599,65.782]}},{"Airport Name":"KAJAANI","City\/Town":"KAJAANI","Country":"FINLAND","location":{"type":"Point","coordinates":[27.692,64.285]}},{"Airport Name":"KAUHAJOKI","City\/Town":"KAUHAJOKI","Country":"FINLAND","location":{"type":"Point","coordinates":[22.393,62.463]}},{"Airport Name":"KRUUNUPYY","City\/Town":"KRUUNUPYY","Country":"FINLAND","location":{"type":"Point","coordinates":[23.143,63.721]}},{"Airport Name":"KEMIJARVI","City\/Town":"KEMIJARVI","Country":"FINLAND","location":{"type":"Point","coordinates":[27.157,66.713]}},{"Airport Name":"KUUSAMO","City\/Town":"KUUSAMO","Country":"FINLAND","location":{"type":"Point","coordinates":[29.239,65.987]}},{"Airport Name":"KITTILA","City\/Town":"KITTILA","Country":"FINLAND","location":{"type":"Point","coordinates":[24.847,67.701]}},{"Airport Name":"KUOPIO","City\/Town":"KUOPIO","Country":"FINLAND","location":{"type":"Point","coordinates":[27.798,63.007]}},{"Airport Name":"LAHTI VESIVEHMAA","City\/Town":"VESIVEHMAA","Country":"FINLAND","location":{"type":"Point","coordinates":[25.693,61.144]}},{"Airport Name":"LAPPEENRANTA","City\/Town":"LAPPEENRANTA","Country":"FINLAND","location":{"type":"Point","coordinates":[28.144,61.044]}},{"Airport Name":"MARIEHAMN","City\/Town":"MARIEHAMN","Country":"FINLAND","location":{"type":"Point","coordinates":[19.898,60.122]}},{"Airport Name":"MENKIJARVI","City\/Town":"MENKIJARVI","Country":"FINLAND","location":{"type":"Point","coordinates":[23.519,62.947]}},{"Airport Name":"MIKKELI","City\/Town":"MIKKELI","Country":"FINLAND","location":{"type":"Point","coordinates":[27.202,61.686]}},{"Airport Name":"NUMMELA","City\/Town":"NUMMELA","Country":"FINLAND","location":{"type":"Point","coordinates":[24.296,60.334]}},{"Airport Name":"OULU","City\/Town":"OULU","Country":"FINLAND","location":{"type":"Point","coordinates":[25.354,64.93]}},{"Airport Name":"PIIKAJARVI","City\/Town":"PIIKAJARVI","Country":"FINLAND","location":{"type":"Point","coordinates":[22.193,61.246]}},{"Airport Name":"PORI","City\/Town":"PORI","Country":"FINLAND","location":{"type":"Point","coordinates":[21.8,61.462]}},{"Airport Name":"PUDASJARVI","City\/Town":"PUDASJARVI","Country":"FINLAND","location":{"type":"Point","coordinates":[26.947,65.402]}},{"Airport Name":"PYHASALMI","City\/Town":"PYHASALMI","Country":"FINLAND","location":{"type":"Point","coordinates":[25.926,63.732]}},{"Airport Name":"RAAHE PATTIJOKI","City\/Town":"PATTIJOKI","Country":"FINLAND","location":{"type":"Point","coordinates":[24.696,64.688]}},{"Airport Name":"RANTASALMI","City\/Town":"RANTASALMI","Country":"FINLAND","location":{"type":"Point","coordinates":[28.356,62.065]}},{"Airport Name":"ROVANIEMI","City\/Town":"ROVANIEMI","Country":"FINLAND","location":{"type":"Point","coordinates":[25.83,66.565]}},{"Airport Name":"RAYSKALA","City\/Town":"RAYSKALA","Country":"FINLAND","location":{"type":"Point","coordinates":[24.108,60.745]}},{"Airport Name":"SAVONLINNA","City\/Town":"SAVONLINNA","Country":"FINLAND","location":{"type":"Point","coordinates":[28.945,61.943]}},{"Airport Name":"SELANPAA","City\/Town":"SELANPAA","Country":"FINLAND","location":{"type":"Point","coordinates":[26.799,61.062]}},{"Airport Name":"SODANKYLA","City\/Town":"SODANKYLA","Country":"FINLAND","location":{"type":"Point","coordinates":[26.619,67.395]}},{"Airport Name":"TAMPERE PIRKKALA","City\/Town":"TAMPERE","Country":"FINLAND","location":{"type":"Point","coordinates":[23.604,61.414]}},{"Airport Name":"TEISKO","City\/Town":"TEISKO","Country":"FINLAND","location":{"type":"Point","coordinates":[24.027,61.773]}},{"Airport Name":"TURKU","City\/Town":"TURKU","Country":"FINLAND","location":{"type":"Point","coordinates":[22.263,60.514]}},{"Airport Name":"UTTI","City\/Town":"UTTI","Country":"FINLAND","location":{"type":"Point","coordinates":[26.938,60.896]}},{"Airport Name":"VAASA","City\/Town":"VAASA","Country":"FINLAND","location":{"type":"Point","coordinates":[21.761,63.051]}},{"Airport Name":"VARKAUS","City\/Town":"VARKAUS","Country":"FINLAND","location":{"type":"Point","coordinates":[27.869,62.171]}},{"Airport Name":"YLIVIESKA","City\/Town":"YLIVIESKA-RAUDASKYLA","Country":"FINLAND","location":{"type":"Point","coordinates":[24.716,64.06]}},{"Airport Name":"ALDERGROVE","City\/Town":"BELFAST","Country":"NORTH IRELAND","location":{"type":"Point","coordinates":[-6.216,54.657]}},{"Airport Name":"ST ANGELO","City\/Town":"ENNISKILLEN","Country":"ENGLAND","location":{"type":"Point","coordinates":[-7.652,54.399]}},{"Airport Name":"CITY","City\/Town":"BELFAST","Country":"NORTH IRELAND","location":{"type":"Point","coordinates":[-5.873,54.618]}},{"Airport Name":"LONDONDERRY EGLINTON","City\/Town":"LONDONDERRY","Country":"NORTH IRELAND","location":{"type":"Point","coordinates":[-7.161,55.043]}},{"Airport Name":"BIRMINGHAM","City\/Town":"BIRMINGHAM","Country":"ENGLAND","location":{"type":"Point","coordinates":[-1.748,52.454]}},{"Airport Name":"COVENTRY","City\/Town":"COVENTRY","Country":"ENGLAND","location":{"type":"Point","coordinates":[-1.48,52.37]}},{"Airport Name":"LEICESTER","City\/Town":"LEICESTER","Country":"ENGLAND","location":{"type":"Point","coordinates":[-1.032,52.608]}},{"Airport Name":"GLOUCESTERSHIRE","City\/Town":"GOLOUCHESTERSHIRE","Country":"ENGLAND","location":{"type":"Point","coordinates":[-2.167,51.894]}},{"Airport Name":"NOTTINGHAM","City\/Town":"NOTTINGHAM","Country":"ENGLAND","location":{"type":"Point","coordinates":[-1.079,52.92]}},{"Airport Name":"WOLVERHAMPTON","City\/Town":"HALFPENNY GREEN","Country":"ENGLAND","location":{"type":"Point","coordinates":[-2.26,52.517]}},{"Airport Name":"KEMBLE","City\/Town":"PAILTON","Country":"UK","location":{"type":"Point","coordinates":[-2.057,51.668]}},{"Airport Name":"TURWESTON","City\/Town":"TURWESTON","Country":"UK","location":{"type":"Point","coordinates":[-1.096,52.041]}},{"Airport Name":"MANCHESTER","City\/Town":"MANCHESTER","Country":"ENGLAND","location":{"type":"Point","coordinates":[-2.275,53.354]}},{"Airport Name":"MANCHESTER WOODFORD","City\/Town":"WOODFORT","Country":"ENGLAND","location":{"type":"Point","coordinates":[-2.149,53.338]}},{"Airport Name":"SANDTOFT","City\/Town":"SANDTOFT","Country":"UK","location":{"type":"Point","coordinates":[-0.858,53.56]}},{"Airport Name":"CHIVENOR","City\/Town":"CHIVENOR","Country":"ENGLAND","location":{"type":"Point","coordinates":[-4.15,51.087]}},{"Airport Name":"ST MAWGAN","City\/Town":"NEWQUAI","Country":"ENGLAND","location":{"type":"Point","coordinates":[-4.995,50.441]}},{"Airport Name":"LYNEHAM","City\/Town":"LYNEHAM","Country":"UK","location":{"type":"Point","coordinates":[-1.993,51.505]}},{"Airport Name":"BOSCOMBE DOWN","City\/Town":"BOSCOMBE DOWN","Country":"ENGLAND","location":{"type":"Point","coordinates":[-1.747,51.152]}},{"Airport Name":"CULDROSE","City\/Town":"CULDROSE","Country":"ENGLAND","location":{"type":"Point","coordinates":[-5.256,50.086]}},{"Airport Name":"ST ATHAN","City\/Town":"ST. ATHAN","Country":"UK","location":{"type":"Point","coordinates":[-3.436,51.405]}},{"Airport Name":"YEOVILTON","City\/Town":"YEOVILTON","Country":"UK","location":{"type":"Point","coordinates":[-2.639,51.009]}},{"Airport Name":"HAVERFORDWEST","City\/Town":"HAVERFORDWEST","Country":"ENGLAND","location":{"type":"Point","coordinates":[-4.961,51.833]}},{"Airport Name":"CARDIFF","City\/Town":"CARDIFF","Country":"WALES","location":{"type":"Point","coordinates":[-3.343,51.397]}},{"Airport Name":"SWANSEA","City\/Town":"SWANSEA","Country":"ENGLAND","location":{"type":"Point","coordinates":[-4.068,51.605]}},{"Airport Name":"BRISTOL","City\/Town":"BRISTOL","Country":"ENGLAND","location":{"type":"Point","coordinates":[-2.719,51.383]}},{"Airport Name":"LIVERPOOL","City\/Town":"LIVERPOOL","Country":"ENGLAND","location":{"type":"Point","coordinates":[-2.85,53.334]}},{"Airport Name":"LUTON","City\/Town":"LONDON","Country":"ENGLAND","location":{"type":"Point","coordinates":[-0.368,51.874]}},{"Airport Name":"PLYMOUTH","City\/Town":"PLYMOUTH","Country":"ENGLAND","location":{"type":"Point","coordinates":[-4.106,50.423]}},{"Airport Name":"BOURNEMOUTH","City\/Town":"BOURNEMOUTH","Country":"ENGLAND","location":{"type":"Point","coordinates":[-1.843,50.78]}},{"Airport Name":"SOUTHAMPTON","City\/Town":"SOUTHAMPTON","Country":"ENGLAND","location":{"type":"Point","coordinates":[-1.357,50.95]}},{"Airport Name":"LASHAM","City\/Town":"LASHAM","Country":"ENGLAND","location":{"type":"Point","coordinates":[-1.032,51.185]}},{"Airport Name":"GUERNSEY","City\/Town":"GUERNSEY","Country":"GUERNSEY ISLD.","location":{"type":"Point","coordinates":[-2.602,49.435]}},{"Airport Name":"JERSEY","City\/Town":"JERSEY","Country":"ENGLAND","location":{"type":"Point","coordinates":[-2.195,49.208]}},{"Airport Name":"SHOREHAM","City\/Town":"SHOREHAM BY SEA","Country":"ENGLAND","location":{"type":"Point","coordinates":[-0.297,50.836]}},{"Airport Name":"BIGGIN HILL","City\/Town":"BIGGIN HILL","Country":"ENGLAND","location":{"type":"Point","coordinates":[0.033,51.331]}},{"Airport Name":"GATWICK","City\/Town":"LONDON","Country":"ENGLAND","location":{"type":"Point","coordinates":[-0.19,51.148]}},{"Airport Name":"CITY","City\/Town":"LONDON","Country":"ENGLAND","location":{"type":"Point","coordinates":[0.054,51.505]}},{"Airport Name":"FARNBOROUGH","City\/Town":"FARNBOROUGH","Country":"ENGLAND","location":{"type":"Point","coordinates":[-0.776,51.276]}},{"Airport Name":"CHALGROVE","City\/Town":"CHALSGROVE","Country":"ENGLAND","location":{"type":"Point","coordinates":[-1.081,51.676]}},{"Airport Name":"BLACKBUSHE","City\/Town":"BLACKBUSHE","Country":"ENGLAND","location":{"type":"Point","coordinates":[-0.848,51.324]}},{"Airport Name":"HEATHROW","City\/Town":"LONDON","Country":"ENGALND","location":{"type":"Point","coordinates":[-0.461,51.477]}},{"Airport Name":"SOUTHEND","City\/Town":"SOUTHEND","Country":"ENGLAND","location":{"type":"Point","coordinates":[0.696,51.571]}},{"Airport Name":"LYDD","City\/Town":"LYDD","Country":"UK","location":{"type":"Point","coordinates":[0.939,50.956]}},{"Airport Name":"MANSTON","City\/Town":"MANSTON","Country":"ENGLAND","location":{"type":"Point","coordinates":[1.346,51.342]}},{"Airport Name":"BROUGH","City\/Town":"BROUGH","Country":"ENGLAND","location":{"type":"Point","coordinates":[-0.566,53.719]}},{"Airport Name":"CARLISLE","City\/Town":"CARLISLE","Country":"ENGLAND","location":{"type":"Point","coordinates":[-2.809,54.938]}},{"Airport Name":"BLACKPOOL","City\/Town":"BLACKPOOL","Country":"ENGLAND","location":{"type":"Point","coordinates":[-3.029,53.772]}},{"Airport Name":"HUMBERSIDE","City\/Town":"HUMBERSIDE","Country":"ENGLAND","location":{"type":"Point","coordinates":[-0.351,53.574]}},{"Airport Name":"WALNEY ISLAND","City\/Town":"BARROW ISLAND","Country":"ENGLAND","location":{"type":"Point","coordinates":[-3.256,54.13]}},{"Airport Name":"LEEDS BRADFORD","City\/Town":"LEEDS","Country":"ENGLAND","location":{"type":"Point","coordinates":[-1.661,53.866]}},{"Airport Name":"WARTON","City\/Town":"WARTON","Country":"UK","location":{"type":"Point","coordinates":[-2.883,53.745]}},{"Airport Name":"HAWARDEN","City\/Town":"HAWARDEN","Country":"ENGLAND","location":{"type":"Point","coordinates":[-2.978,53.178]}},{"Airport Name":"ISLE OF MAN","City\/Town":"ISLE OF MAN","Country":"ENGLAND","location":{"type":"Point","coordinates":[-4.624,54.083]}},{"Airport Name":"NEWCASTLE","City\/Town":"NEWCASTLE","Country":"ENGLAND","location":{"type":"Point","coordinates":[-1.692,55.038]}},{"Airport Name":"TEESSIDE","City\/Town":"TEESSIDE","Country":"ENGLAND","location":{"type":"Point","coordinates":[-1.429,54.509]}},{"Airport Name":"EAST MIDLANDS","City\/Town":"EAST MIDLANDS","Country":"ENGLAND","location":{"type":"Point","coordinates":[-1.328,52.831]}},{"Airport Name":"LLANBEDR","City\/Town":"LLANBEDR","Country":"ENGLAND","location":{"type":"Point","coordinates":[-4.123,52.812]}},{"Airport Name":"TERNHILL","City\/Town":"TERNHILL","Country":"UK","location":{"type":"Point","coordinates":[-2.533,52.871]}},{"Airport Name":"MONA","City\/Town":"MONA","Country":"UK","location":{"type":"Point","coordinates":[-4.373,53.258]}},{"Airport Name":"SHAWBURY","City\/Town":"SHAWBURY","Country":"UK","location":{"type":"Point","coordinates":[-2.668,52.798]}},{"Airport Name":"VALLEY","City\/Town":"VALLEY","Country":"UK","location":{"type":"Point","coordinates":[-4.535,53.248]}},{"Airport Name":"WOODVALE","City\/Town":"WOODVALE","Country":"UK","location":{"type":"Point","coordinates":[-3.055,53.581]}},{"Airport Name":"WEST FREUGH","City\/Town":"WEST FREUGH","Country":"UK","location":{"type":"Point","coordinates":[-4.948,54.851]}},{"Airport Name":"KIRKWALL","City\/Town":"KIRKWALL","Country":"SCOTLAND","location":{"type":"Point","coordinates":[-2.905,58.958]}},{"Airport Name":"SUMBURGH","City\/Town":"SUMBURGH","Country":"UK","location":{"type":"Point","coordinates":[-1.296,59.879]}},{"Airport Name":"WICK","City\/Town":"WICK","Country":"UK","location":{"type":"Point","coordinates":[-3.093,58.459]}},{"Airport Name":"DYCE","City\/Town":"ABERDEEN","Country":"UK","location":{"type":"Point","coordinates":[-2.2,57.204]}},{"Airport Name":"INVERNESS","City\/Town":"INVERNESS","Country":"UK","location":{"type":"Point","coordinates":[-4.05,57.54]}},{"Airport Name":"GLASGOW","City\/Town":"GLASGOW","Country":"UK","location":{"type":"Point","coordinates":[-4.433,55.872]}},{"Airport Name":"EDINBURGH","City\/Town":"EDINBURGH","Country":"UK","location":{"type":"Point","coordinates":[-3.373,55.95]}},{"Airport Name":"ISLAY","City\/Town":"ISLAY","Country":"UK","location":{"type":"Point","coordinates":[-6.257,55.682]}},{"Airport Name":"PRESTWICK","City\/Town":"PRESTWICK","Country":"UK","location":{"type":"Point","coordinates":[-4.587,55.508]}},{"Airport Name":"BENBECULA","City\/Town":"BENBECULA","Country":"UK","location":{"type":"Point","coordinates":[-7.363,57.481]}},{"Airport Name":"SCATSTA","City\/Town":"SCATSTA","Country":"UK","location":{"type":"Point","coordinates":[-1.298,60.432]}},{"Airport Name":"DUNDEE","City\/Town":"DUNDEE","Country":"UK","location":{"type":"Point","coordinates":[-3.026,56.453]}},{"Airport Name":"STORNOWAY","City\/Town":"STORNOWAY","Country":"UK","location":{"type":"Point","coordinates":[-6.329,58.214]}},{"Airport Name":"TIREE","City\/Town":"TIREE","Country":"UK","location":{"type":"Point","coordinates":[-6.869,56.499]}},{"Airport Name":"LEUCHARS","City\/Town":"LEUCHARS","Country":"UK","location":{"type":"Point","coordinates":[-2.868,56.373]}},{"Airport Name":"LOSSIEMOUTH","City\/Town":"LOSSIEMOUTH","Country":"UK","location":{"type":"Point","coordinates":[-3.339,57.705]}},{"Airport Name":"BRACKNELL MET CENTER","City\/Town":"BRACKNELL","Country":"ENGLAND","location":{"type":"Point","coordinates":[-0.783,51.383]}},{"Airport Name":"CAMBRIDGE","City\/Town":"CAMBRIDGE","Country":"ENGLAND","location":{"type":"Point","coordinates":[0.175,52.205]}},{"Airport Name":"CONINGTON","City\/Town":"PETERBOROUGH","Country":"ENGLAND","location":{"type":"Point","coordinates":[-0.251,52.468]}},{"Airport Name":"NORWICH","City\/Town":"NORWICH","Country":"ENGLAND","location":{"type":"Point","coordinates":[1.283,52.676]}},{"Airport Name":"STANSTED","City\/Town":"LONDON","Country":"ENGLAND","location":{"type":"Point","coordinates":[0.235,51.885]}},{"Airport Name":"NORTH WEALD","City\/Town":"NORTH WEALD","Country":"UK","location":{"type":"Point","coordinates":[0.154,51.722]}},{"Airport Name":"SHEFFIELD CITY","City\/Town":"FOWLMERE","Country":"ENGLAND","location":{"type":"Point","coordinates":[-1.388,53.394]}},{"Airport Name":"CRANFIELD","City\/Town":"CRANFIELD","Country":"ENGLAND","location":{"type":"Point","coordinates":[-0.617,52.072]}},{"Airport Name":"DUNSFOLD","City\/Town":"DUNSFOLD","Country":"ENGLAND","location":{"type":"Point","coordinates":[-0.534,51.117]}},{"Airport Name":"EXETER","City\/Town":"EXETER","Country":"ENGLAND","location":{"type":"Point","coordinates":[-3.414,50.734]}},{"Airport Name":"BRISTOL FILTON","City\/Town":"BRISTOL","Country":"ENGLAND","location":{"type":"Point","coordinates":[-2.591,51.519]}},{"Airport Name":"HATFIELD","City\/Town":"HATFIELD","Country":"ENGLAND","location":{"type":"Point","coordinates":[0.25,51.767]}},{"Airport Name":"KIDLINGTON","City\/Town":"OXFORD","Country":"ENGLAND","location":{"type":"Point","coordinates":[-1.32,51.837]}},{"Airport Name":"BENSON","City\/Town":"BENSON","Country":"ENGLAND","location":{"type":"Point","coordinates":[-1.096,51.616]}},{"Airport Name":"LAKENHEATH","City\/Town":"LAKENHEATH","Country":"ENGLAND","location":{"type":"Point","coordinates":[0.561,52.409]}},{"Airport Name":"MILDENHALL","City\/Town":"MILDENHALL","Country":"ENGLAND","location":{"type":"Point","coordinates":[0.488,52.361]}},{"Airport Name":"WATTISHAM","City\/Town":"WATTISHAM","Country":"UK","location":{"type":"Point","coordinates":[0.956,52.127]}},{"Airport Name":"WYTON","City\/Town":"WYTON","Country":"UK","location":{"type":"Point","coordinates":[-0.108,52.357]}},{"Airport Name":"FAIRFORD","City\/Town":"FAIRFORD","Country":"ENGLAND","location":{"type":"Point","coordinates":[-1.79,51.682]}},{"Airport Name":"BRIZE NORTON","City\/Town":"BRIZE NORTON","Country":"ENGLAND","location":{"type":"Point","coordinates":[-1.584,51.75]}},{"Airport Name":"ODIHAM","City\/Town":"ODIHAM","Country":"UK","location":{"type":"Point","coordinates":[-0.943,51.234]}},{"Airport Name":"COSFORD","City\/Town":"COSFORD","Country":"ENGLAND","location":{"type":"Point","coordinates":[-2.306,52.64]}},{"Airport Name":"NORTHOLT RAF","City\/Town":"NORTHOLT","Country":"UK","location":{"type":"Point","coordinates":[-0.418,51.553]}},{"Airport Name":"CONINGSBY","City\/Town":"CONINGSBY","Country":"ENGLAND","location":{"type":"Point","coordinates":[-0.166,53.093]}},{"Airport Name":"DISHFORTH","City\/Town":"DISHFORTH","Country":"ENGLAND","location":{"type":"Point","coordinates":[-1.42,54.137]}},{"Airport Name":"LEEMING","City\/Town":"LEEMING","Country":"ENGLAND","location":{"type":"Point","coordinates":[-1.535,54.292]}},{"Airport Name":"CHURCH FENTON","City\/Town":"CHURCH FENTON","Country":"ENGLAND","location":{"type":"Point","coordinates":[-1.195,53.834]}},{"Airport Name":"HONINGTON","City\/Town":"HONINGTON","Country":"ENGLAND","location":{"type":"Point","coordinates":[0.773,52.343]}},{"Airport Name":"COTTESMORE","City\/Town":"COTTESMORE","Country":"ENGLAND","location":{"type":"Point","coordinates":[-0.649,52.736]}},{"Airport Name":"SCAMPTON","City\/Town":"SCAMPTON","Country":"UK","location":{"type":"Point","coordinates":[-0.551,53.307]}},{"Airport Name":"WITTERING","City\/Town":"WITTERING","Country":"UK","location":{"type":"Point","coordinates":[-0.476,52.613]}},{"Airport Name":"LINTON ON OUSE","City\/Town":"LINTON-ON-OUSE","Country":"ENGLAND","location":{"type":"Point","coordinates":[-1.252,54.049]}},{"Airport Name":"WADDINGTON","City\/Town":"WADDINGTON","Country":"UK","location":{"type":"Point","coordinates":[-0.524,53.166]}},{"Airport Name":"TOPCLIFFE","City\/Town":"TOPCLIFFE","Country":"UK","location":{"type":"Point","coordinates":[-1.382,54.206]}},{"Airport Name":"COLTISHALL","City\/Town":"COLTISHALL","Country":"ENGLAND","location":{"type":"Point","coordinates":[1.357,52.755]}},{"Airport Name":"CRANWELL","City\/Town":"CRANWELL","Country":"ENGLAND","location":{"type":"Point","coordinates":[-0.481,53.031]}},{"Airport Name":"BARKSTON HEATH","City\/Town":"BARKSTON HEATH","Country":"ENGLAND","location":{"type":"Point","coordinates":[-0.561,52.962]}},{"Airport Name":"MARHAM","City\/Town":"MARHAM","Country":"UK","location":{"type":"Point","coordinates":[0.55,52.648]}},{"Airport Name":"MOUNT PLEASANT","City\/Town":"MOUNT PLEASANT","Country":"FALKLAND ISLANDS","location":{"type":"Point","coordinates":[-58.447,-51.823]}},{"Airport Name":"SCHIPHOL","City\/Town":"AMSTERDAM","Country":"NETHERLANDS","location":{"type":"Point","coordinates":[4.764,52.309]}},{"Airport Name":"BUDEL","City\/Town":"WEERT","Country":"NETHERLANDS","location":{"type":"Point","coordinates":[5.601,51.255]}},{"Airport Name":"MAASTRICHT","City\/Town":"MAASTRICHT","Country":"NETHERLANDS","location":{"type":"Point","coordinates":[5.77,50.911]}},{"Airport Name":"DEELEN","City\/Town":"DEELEN","Country":"NETHERLANDS","location":{"type":"Point","coordinates":[5.873,52.061]}},{"Airport Name":"DRACHTEN","City\/Town":"DRACHTEN","Country":"NETHERLANDS","location":{"type":"Point","coordinates":[6.13,53.119]}},{"Airport Name":"EINDHOVEN","City\/Town":"EINDHOVEN","Country":"NETHERLANDS","location":{"type":"Point","coordinates":[5.374,51.45]}},{"Airport Name":"EELDE","City\/Town":"GRONINGEN","Country":"NETHERLANDS","location":{"type":"Point","coordinates":[6.579,53.119]}},{"Airport Name":"GILZE RIJEN","City\/Town":"GILZE-RIJEN","Country":"NETHERLANDS","location":{"type":"Point","coordinates":[4.933,51.568]}},{"Airport Name":"DE KOOY","City\/Town":"DE KOOY","Country":"NETHERLANDS","location":{"type":"Point","coordinates":[4.781,52.923]}},{"Airport Name":"LELYSTAD","City\/Town":"LELYSTAD","Country":"NETHERLANDS","location":{"type":"Point","coordinates":[5.527,52.46]}},{"Airport Name":"LEEUWARDEN","City\/Town":"LEEUWARDEN","Country":"NETHERLANDS","location":{"type":"Point","coordinates":[5.761,53.229]}},{"Airport Name":"ROTTERDAM","City\/Town":"ROTTERDAM","Country":"NETHERLANDS","location":{"type":"Point","coordinates":[4.442,51.957]}},{"Airport Name":"SOESTERBERG","City\/Town":"SOESTERBERG","Country":"NETHERLANDS","location":{"type":"Point","coordinates":[5.276,52.127]}},{"Airport Name":"TWENTHE","City\/Town":"ENSCHEDE","Country":"NETHERLANDS","location":{"type":"Point","coordinates":[6.874,52.27]}},{"Airport Name":"VALKENBURG","City\/Town":"VALKENBURG","Country":"NETHERLANDS","location":{"type":"Point","coordinates":[4.426,52.17]}},{"Airport Name":"WOENSDRECHT","City\/Town":"WOENSDRECHT","Country":"NETHERLANDS","location":{"type":"Point","coordinates":[4.342,51.449]}},{"Airport Name":"CORK","City\/Town":"CORK","Country":"IRELAND","location":{"type":"Point","coordinates":[-8.492,51.843]}},{"Airport Name":"GALWAY","City\/Town":"GALWAY","Country":"IRELAND","location":{"type":"Point","coordinates":[-8.939,53.301]}},{"Airport Name":"DONEGAL","City\/Town":"DONEGAL","Country":"IRELAND","location":{"type":"Point","coordinates":[-8.341,55.044]}},{"Airport Name":"DUBLIN","City\/Town":"DUBLIN","Country":"IRELAND","location":{"type":"Point","coordinates":[-6.27,53.421]}},{"Airport Name":"CONNAUGHT","City\/Town":"CONNAUGHT","Country":"IRELAND","location":{"type":"Point","coordinates":[-8.818,53.91]}},{"Airport Name":"KERRY","City\/Town":"KERRY","Country":"IRELAND","location":{"type":"Point","coordinates":[-9.524,52.181]}},{"Airport Name":"CASEMENT","City\/Town":"CASEMENT","Country":"IRELAND","location":{"type":"Point","coordinates":[-6.443,53.303]}},{"Airport Name":"SHANNON","City\/Town":"SHANNON","Country":"IRELAND","location":{"type":"Point","coordinates":[-8.925,52.702]}},{"Airport Name":"SLIGO","City\/Town":"SLIGO","Country":"IRELAND","location":{"type":"Point","coordinates":[-8.599,54.28]}},{"Airport Name":"WATERFORD","City\/Town":"WATERFORD","Country":"IRELAND","location":{"type":"Point","coordinates":[-7.087,52.187]}},{"Airport Name":"AARHUS","City\/Town":"AARHUS","Country":"DENMARK","location":{"type":"Point","coordinates":[10.619,56.304]}},{"Airport Name":"BILLUND","City\/Town":"BILLUND","Country":"DENMARK","location":{"type":"Point","coordinates":[9.152,55.74]}},{"Airport Name":"KASTRUP","City\/Town":"COPENHAGEN","Country":"DENMARK","location":{"type":"Point","coordinates":[12.656,55.618]}},{"Airport Name":"ESBJERG","City\/Town":"ESBJERG","Country":"DENMARK","location":{"type":"Point","coordinates":[8.553,55.526]}},{"Airport Name":"GRONHOLT HILLEROD","City\/Town":"GRONHOLT","Country":"DENMARK","location":{"type":"Point","coordinates":[12.382,55.941]}},{"Airport Name":"LINDTORP","City\/Town":"LINDTORP","Country":"DENMARK","location":{"type":"Point","coordinates":[8.443,56.397]}},{"Airport Name":"KARUP","City\/Town":"KARUP","Country":"DENMARK","location":{"type":"Point","coordinates":[9.124,56.297]}},{"Airport Name":"LAESO","City\/Town":"LAESO","Country":"DENMARK","location":{"type":"Point","coordinates":[11.001,57.278]}},{"Airport Name":"LOLLAND FALSTER MARIBO","City\/Town":"MARIBO","Country":"DENMARK","location":{"type":"Point","coordinates":[11.44,54.699]}},{"Airport Name":"ODENSE","City\/Town":"ODENSE","Country":"DENMARK","location":{"type":"Point","coordinates":[10.329,55.476]}},{"Airport Name":"KRUSA PADBORG","City\/Town":"KRUSA-PADBORG","Country":"DENMARK","location":{"type":"Point","coordinates":[9.279,54.87]}},{"Airport Name":"ROSKILDE","City\/Town":"COPENHAGEN","Country":"DENMARK","location":{"type":"Point","coordinates":[12.131,55.586]}},{"Airport Name":"BORNHOLM RONNE","City\/Town":"RONNE","Country":"DENMARK","location":{"type":"Point","coordinates":[14.759,55.063]}},{"Airport Name":"SONDERBORG","City\/Town":"SOENDERBORG","Country":"DENMARK","location":{"type":"Point","coordinates":[9.792,54.964]}},{"Airport Name":"SINDAL","City\/Town":"SINDAL","Country":"DENMARK","location":{"type":"Point","coordinates":[10.229,57.503]}},{"Airport Name":"SKRYDSTRUP","City\/Town":"SKRYDSTRUP","Country":"DENMARK","location":{"type":"Point","coordinates":[9.264,55.225]}},{"Airport Name":"SKIVE","City\/Town":"SKIVE","Country":"DENMARK","location":{"type":"Point","coordinates":[9.173,56.55]}},{"Airport Name":"THISTED","City\/Town":"THISTED","Country":"DENMARK","location":{"type":"Point","coordinates":[8.705,57.069]}},{"Airport Name":"VANDEL","City\/Town":"VANDEL","Country":"DENMARK","location":{"type":"Point","coordinates":[9.193,55.697]}},{"Airport Name":"KOLDING VAMDRUP","City\/Town":"KOLDING","Country":"DENMARK","location":{"type":"Point","coordinates":[9.331,55.436]}},{"Airport Name":"VAGAR","City\/Town":"VAGAR","Country":"FAROE ISL.","location":{"type":"Point","coordinates":[-7.277,62.064]}},{"Airport Name":"AARS","City\/Town":"VESTHIMMERLAND","Country":"DENMARK","location":{"type":"Point","coordinates":[9.459,56.847]}},{"Airport Name":"STAUNING","City\/Town":"STAUNING","Country":"DENMARK","location":{"type":"Point","coordinates":[8.354,55.99]}},{"Airport Name":"VAERLOSE","City\/Town":"VAERLOSE","Country":"DENMARK","location":{"type":"Point","coordinates":[12.343,55.767]}},{"Airport Name":"AALBORG","City\/Town":"AALBORG","Country":"DENMARK","location":{"type":"Point","coordinates":[9.849,57.093]}},{"Airport Name":"FINDEL INTERNATIONAL AIRPORT","City\/Town":"LUXEMBURG","Country":"LUXEMBURG","location":{"type":"Point","coordinates":[6.211,49.626]}},{"Airport Name":"VIGRA","City\/Town":"ALESUND","Country":"NORWAY","location":{"type":"Point","coordinates":[6.11,62.56]}},{"Airport Name":"ANDOYA","City\/Town":"ANDOYA","Country":"NORWAY","location":{"type":"Point","coordinates":[16.144,69.293]}},{"Airport Name":"ALTA","City\/Town":"ALTA","Country":"NORWAY","location":{"type":"Point","coordinates":[23.366,69.977]}},{"Airport Name":"BRINGELAND","City\/Town":"FORDE","Country":"NORWAY","location":{"type":"Point","coordinates":[5.764,61.392]}},{"Airport Name":"BOEMOEN","City\/Town":"BOMOEN","Country":"NORWAY","location":{"type":"Point","coordinates":[6.501,60.639]}},{"Airport Name":"BRONNOY","City\/Town":"BRONNOYSUND","Country":"NORWAY","location":{"type":"Point","coordinates":[12.214,65.459]}},{"Airport Name":"BODO","City\/Town":"BODOE","Country":"NORWAY","location":{"type":"Point","coordinates":[14.363,67.269]}},{"Airport Name":"BERGEN FLESLAND","City\/Town":"BERGEN","Country":"NORWAY","location":{"type":"Point","coordinates":[5.218,60.293]}},{"Airport Name":"BATSFJORD","City\/Town":"BATSFJORD","Country":"NORWAY","location":{"type":"Point","coordinates":[29.692,70.6]}},{"Airport Name":"KRISTIANSAND KJEVIK","City\/Town":"KRISTIANSAND","Country":"NORWAY","location":{"type":"Point","coordinates":[8.085,58.204]}},{"Airport Name":"DAGALI","City\/Town":"DAGLI","Country":"NORWAY","location":{"type":"Point","coordinates":[8.514,60.417]}},{"Airport Name":"BARDUFOSS","City\/Town":"BARDUFOSS","Country":"NORWAY","location":{"type":"Point","coordinates":[18.54,69.056]}},{"Airport Name":"EVENES","City\/Town":"EVENES","Country":"NORWAY","location":{"type":"Point","coordinates":[16.678,68.491]}},{"Airport Name":"OSLO FORNEBU","City\/Town":"OSLO","Country":"NORWAY","location":{"type":"Point","coordinates":[10.617,59.896]}},{"Airport Name":"FAGERNES LEIRIN","City\/Town":"FAGERNES","Country":"NORWAY","location":{"type":"Point","coordinates":[9.293,61.011]}},{"Airport Name":"FLORO","City\/Town":"FLORO","Country":"NORWAY","location":{"type":"Point","coordinates":[5.025,61.584]}},{"Airport Name":"OSLO GARDERMOEN","City\/Town":"OSLO","Country":"NORWAY","location":{"type":"Point","coordinates":[11.1,60.194]}},{"Airport Name":"STAFSBERG","City\/Town":"HAMAR","Country":"NORWAY","location":{"type":"Point","coordinates":[11.067,60.818]}},{"Airport Name":"HAUGESUND KARMOY","City\/Town":"HAUGESUND","Country":"NORWAY","location":{"type":"Point","coordinates":[5.208,59.345]}},{"Airport Name":"HASVIK","City\/Town":"HASVIK","Country":"NORWAY","location":{"type":"Point","coordinates":[22.14,70.487]}},{"Airport Name":"KRISTIANSUND KVERNBERGET","City\/Town":"KRISTIANSUND","Country":"NORWAY","location":{"type":"Point","coordinates":[7.824,63.112]}},{"Airport Name":"KJELLER","City\/Town":"KJELLER","Country":"NORWAY","location":{"type":"Point","coordinates":[11.036,59.969]}},{"Airport Name":"KIRKENES HOYBUKTMOEN","City\/Town":"KIRKENES","Country":"NORWAY","location":{"type":"Point","coordinates":[29.887,69.725]}},{"Airport Name":"LISTA","City\/Town":"LISTA","Country":"NORWAY","location":{"type":"Point","coordinates":[6.625,58.1]}},{"Airport Name":"ARO","City\/Town":"MOLDE","Country":"NORWAY","location":{"type":"Point","coordinates":[7.272,62.746]}},{"Airport Name":"KJAERSTAD","City\/Town":"MOSJOEN","Country":"NORWAY","location":{"type":"Point","coordinates":[13.215,65.784]}},{"Airport Name":"BANAK","City\/Town":"BANAK","Country":"NORWAY","location":{"type":"Point","coordinates":[24.973,70.069]}},{"Airport Name":"NOTODDEN","City\/Town":"NOTODDEN","Country":"NORWAY","location":{"type":"Point","coordinates":[9.212,59.566]}},{"Airport Name":"ORLAND","City\/Town":"ORLAND","Country":"NORWAY","location":{"type":"Point","coordinates":[9.604,63.699]}},{"Airport Name":"ROEROS","City\/Town":"ROROS","Country":"NORWAY","location":{"type":"Point","coordinates":[11.342,62.578]}},{"Airport Name":"RYGGE","City\/Town":"RYGGE","Country":"NORWAY","location":{"type":"Point","coordinates":[10.786,59.379]}},{"Airport Name":"SVALBARD LONGYEAR","City\/Town":"SVALBARD","Country":"NORWAY","location":{"type":"Point","coordinates":[15.466,78.246]}},{"Airport Name":"SOGNDAL HAUKASEN","City\/Town":"SOGNDAL","Country":"NORWAY","location":{"type":"Point","coordinates":[7.136,61.156]}},{"Airport Name":"SKIEN GEITERYGGEN","City\/Town":"SKIEN","Country":"NORWAY","location":{"type":"Point","coordinates":[9.567,59.185]}},{"Airport Name":"SOERSTOKKEN","City\/Town":"STORD","Country":"NORWAY","location":{"type":"Point","coordinates":[5.341,59.792]}},{"Airport Name":"SORKJOSEN","City\/Town":"SORKJOSEN","Country":"NORWAY","location":{"type":"Point","coordinates":[20.959,69.787]}},{"Airport Name":"SVARTNES","City\/Town":"SVARTNES","Country":"NORWAY","location":{"type":"Point","coordinates":[31.045,70.355]}},{"Airport Name":"STOKKA","City\/Town":"SANDNESSJOEN","Country":"NORWAY","location":{"type":"Point","coordinates":[12.469,65.957]}},{"Airport Name":"TROMSO","City\/Town":"TROMSO","Country":"NORWAY","location":{"type":"Point","coordinates":[18.919,69.683]}},{"Airport Name":"TORP","City\/Town":"TORP","Country":"NORWAY","location":{"type":"Point","coordinates":[10.259,59.187]}},{"Airport Name":"TRONDHEIM VAERNES","City\/Town":"TRONDHEIM","Country":"NORWAY","location":{"type":"Point","coordinates":[10.94,63.458]}},{"Airport Name":"STAVANGER SOLA","City\/Town":"STAVANGER","Country":"NORWAY","location":{"type":"Point","coordinates":[5.638,58.877]}},{"Airport Name":"REBIECHOWO","City\/Town":"GDANSK","Country":"POLAND","location":{"type":"Point","coordinates":[18.466,54.377]}},{"Airport Name":"BALICE JP II INTERNATIONAL AIRPORT","City\/Town":"KRAKOW","Country":"POLAND","location":{"type":"Point","coordinates":[19.785,50.078]}},{"Airport Name":"MUCHOWIEC","City\/Town":"KATOWICE","Country":"POLAND","location":{"type":"Point","coordinates":[19.035,50.238]}},{"Airport Name":"ZEGRZE POMORSKIE","City\/Town":"KOSZALIN","Country":"POLAND","location":{"type":"Point","coordinates":[16.264,54.042]}},{"Airport Name":"PYRZOWICE","City\/Town":"KATOWICE","Country":"POLAND","location":{"type":"Point","coordinates":[19.08,50.474]}},{"Airport Name":"LUBLINEK","City\/Town":"LODZ","Country":"POLAND","location":{"type":"Point","coordinates":[19.398,51.722]}},{"Airport Name":"MIELEC","City\/Town":"MIELEC","Country":"POLAND","location":{"type":"Point","coordinates":[21.462,50.322]}},{"Airport Name":"LAWICA","City\/Town":"POZNAN","Country":"POLAND","location":{"type":"Point","coordinates":[16.826,52.421]}},{"Airport Name":"JASIONKA","City\/Town":"RZESZOW","Country":"POLAND","location":{"type":"Point","coordinates":[22.019,50.11]}},{"Airport Name":"GOLENIOW","City\/Town":"SZCZECHIN","Country":"POLAND","location":{"type":"Point","coordinates":[14.902,53.585]}},{"Airport Name":"DABIE","City\/Town":"SZCZECHIN","Country":"POLAND","location":{"type":"Point","coordinates":[14.634,53.392]}},{"Airport Name":"REDZIKOWO","City\/Town":"SLUPSK","Country":"POLAND","location":{"type":"Point","coordinates":[17.108,54.479]}},{"Airport Name":"SWIDWIN","City\/Town":"SHAPAJA","Country":"PERU","location":{"type":"Point","coordinates":[15.828,53.791]}},{"Airport Name":"OKECIE","City\/Town":"WARSAW","Country":"POLAND","location":{"type":"Point","coordinates":[20.967,52.166]}},{"Airport Name":"STRACHOWICE","City\/Town":"WROCLAW","Country":"POLAND","location":{"type":"Point","coordinates":[16.886,51.102]}},{"Airport Name":"BABIMOST","City\/Town":"ZIELONA GORA","Country":"POLAND","location":{"type":"Point","coordinates":[15.799,52.139]}},{"Airport Name":"MALMEN","City\/Town":"LINKOEPING","Country":"SWEDEN","location":{"type":"Point","coordinates":[15.526,58.402]}},{"Airport Name":"BRAVALLA","City\/Town":"NORRKOEPING","Country":"SWEDEN","location":{"type":"Point","coordinates":[16.103,58.611]}},{"Airport Name":"UPPSALA","City\/Town":"UPPSALA","Country":"SWEDEN","location":{"type":"Point","coordinates":[17.588,59.897]}},{"Airport Name":"TULLINGE","City\/Town":"STOCKHOLM","Country":"SWEDEN","location":{"type":"Point","coordinates":[17.912,59.181]}},{"Airport Name":"ANGELHOLM","City\/Town":"ANGELHOLM","Country":"SWEDEN","location":{"type":"Point","coordinates":[12.847,56.296]}},{"Airport Name":"RONNEBY","City\/Town":"RONNEBY","Country":"SWEDEN","location":{"type":"Point","coordinates":[15.265,56.267]}},{"Airport Name":"HASSLOSA","City\/Town":"HASSLOSA","Country":"SWEDEN","location":{"type":"Point","coordinates":[13.262,58.409]}},{"Airport Name":"KNISLINGE","City\/Town":"KNISLINGE","Country":"SWEDEN","location":{"type":"Point","coordinates":[14.132,56.184]}},{"Airport Name":"MOHOLM","City\/Town":"MOHOLM","Country":"SWEDEN","location":{"type":"Point","coordinates":[14.114,58.598]}},{"Airport Name":"KOSTA","City\/Town":"KOSTA","Country":"SWEDEN","location":{"type":"Point","coordinates":[15.452,56.844]}},{"Airport Name":"RADA","City\/Town":"RADA","Country":"SWEDEN","location":{"type":"Point","coordinates":[13.053,58.498]}},{"Airport Name":"BYHOLMA","City\/Town":"BYHOLMA","Country":"SWEDEN","location":{"type":"Point","coordinates":[13.602,56.785]}},{"Airport Name":"LANDVETTER","City\/Town":"GOTHENBORG","Country":"SWEDEN","location":{"type":"Point","coordinates":[12.28,57.663]}},{"Airport Name":"JONKOPING","City\/Town":"JOENKOEPING","Country":"SWEDEN","location":{"type":"Point","coordinates":[14.069,57.758]}},{"Airport Name":"FALKOPING","City\/Town":"FALKOPING","Country":"SWEDEN","location":{"type":"Point","coordinates":[13.588,58.17]}},{"Airport Name":"LIDKOPING","City\/Town":"LIDKOPING","Country":"SWEDEN","location":{"type":"Point","coordinates":[13.174,58.465]}},{"Airport Name":"SAVE","City\/Town":"GOTHENBORG","Country":"SWEDEN","location":{"type":"Point","coordinates":[11.87,57.775]}},{"Airport Name":"SKOVDE","City\/Town":"SKOVDE","Country":"SWEDEN","location":{"type":"Point","coordinates":[13.973,58.456]}},{"Airport Name":"TROLLHATTAN VANERSBORG","City\/Town":"TROLLHATTAN","Country":"SWEDEN","location":{"type":"Point","coordinates":[12.345,58.318]}},{"Airport Name":"KARLSBORG","City\/Town":"KARLSBORG","Country":"SWEDEN","location":{"type":"Point","coordinates":[14.507,58.514]}},{"Airport Name":"SATENAS","City\/Town":"SATENAS","Country":"SWEDEN","location":{"type":"Point","coordinates":[12.714,58.426]}},{"Airport Name":"GIMO","City\/Town":"GIMO","Country":"SWEDEN","location":{"type":"Point","coordinates":[18.105,60.133]}},{"Airport Name":"BARKARBY","City\/Town":"STOCKHOLM","Country":"SWEDEN","location":{"type":"Point","coordinates":[17.891,59.419]}},{"Airport Name":"KARLSKOGA","City\/Town":"KARLSKOGA","Country":"SWEDEN","location":{"type":"Point","coordinates":[14.496,59.346]}},{"Airport Name":"MORA","City\/Town":"MORA","Country":"SWEDEN","location":{"type":"Point","coordinates":[14.511,60.958]}},{"Airport Name":"SKAVSTA","City\/Town":"STOCKHOLM","Country":"SWEDEN","location":{"type":"Point","coordinates":[16.912,58.789]}},{"Airport Name":"STRANGNAS","City\/Town":"STRANGNAS","Country":"SWEDEN","location":{"type":"Point","coordinates":[17.109,59.314]}},{"Airport Name":"ARVIKA","City\/Town":"ARVIKA","Country":"SWEDEN","location":{"type":"Point","coordinates":[12.639,59.676]}},{"Airport Name":"BJORKVIK","City\/Town":"BJORKVIK","Country":"SWEDEN","location":{"type":"Point","coordinates":[16.571,58.791]}},{"Airport Name":"EMMABODA","City\/Town":"EMMABODA","Country":"SWEDEN","location":{"type":"Point","coordinates":[15.605,56.611]}},{"Airport Name":"FERINGE","City\/Town":"LJUNGBY","Country":"SWEDEN","location":{"type":"Point","coordinates":[13.922,56.95]}},{"Airport Name":"KRISTIANSTAD","City\/Town":"KRISTIANSTAD","Country":"SWEDEN","location":{"type":"Point","coordinates":[14.085,55.922]}},{"Airport Name":"LANDSKRONA","City\/Town":"LANDSKRONA","Country":"SWEDEN","location":{"type":"Point","coordinates":[12.861,55.945]}},{"Airport Name":"OSKARSHAMN","City\/Town":"OSKARSHAMN","Country":"SWEDEN","location":{"type":"Point","coordinates":[16.498,57.35]}},{"Airport Name":"ANDERSTORP","City\/Town":"ANDERSTORP","Country":"SWEDEN","location":{"type":"Point","coordinates":[13.599,57.264]}},{"Airport Name":"KALMAR","City\/Town":"KALKMAR","Country":"SWEDEN","location":{"type":"Point","coordinates":[16.288,56.685]}},{"Airport Name":"STURUP","City\/Town":"MALMOE","Country":"SWEDEN","location":{"type":"Point","coordinates":[13.371,55.53]}},{"Airport Name":"HALMSTAD","City\/Town":"HALMSTAD","Country":"SWEDEN","location":{"type":"Point","coordinates":[12.82,56.691]}},{"Airport Name":"HAGSHULT","City\/Town":"HAGSHULT","Country":"SWEDEN","location":{"type":"Point","coordinates":[14.137,57.292]}},{"Airport Name":"KRONOBERG","City\/Town":"VAXJO","Country":"SWEDEN","location":{"type":"Point","coordinates":[14.728,56.929]}},{"Airport Name":"HALLVIKEN","City\/Town":"HALLVIKEN","Country":"SWEDEN","location":{"type":"Point","coordinates":[15.458,63.738]}},{"Airport Name":"HEDLANDA","City\/Town":"HEDE","Country":"SWEDEN","location":{"type":"Point","coordinates":[13.747,62.409]}},{"Airport Name":"SVEG","City\/Town":"SVEG","Country":"SWEDEN","location":{"type":"Point","coordinates":[14.423,62.048]}},