[{"name":"Omnidrive","category_code":"network_hosting","description":"","address1":"Suite 200","address2":"654 High Street","zip_code":"94301","city":"Palo Alto","state_code":"CA","country_code":"ISR","location":null},{"name":"Helio","category_code":"mobile","description":null,"address1":"10960 Wilshire Blvd.","address2":"Suite 700","zip_code":"90024","city":"Los Angeles","state_code":"CA","country_code":"USA","location":{"type":"Point","coordinates":[-118.446596,34.057498]}},{"name":"Geni","category_code":"web","description":"Headquarters","address1":"9229 W. Sunset Blvd.","address2":"","zip_code":"90069","city":"West Hollywood","state_code":"CA","country_code":"USA","location":{"type":"Point","coordinates":[-118.393064,34.090368]}},{"name":"Slacker","category_code":"music","description":"","address1":"16935 W. Bernardo Dr. Suite 101","address2":"","zip_code":"92127","city":"San Diego","state_code":"CA","country_code":"USA","location":{"type":"Point","coordinates":[-117.081406,33.022176]}},{"name":"Wetpaint","category_code":"web","description":"","address1":"710 - 2nd Avenue","address2":"Suite 1100","zip_code":"98104","city":"Seattle","state_code":"WA","country_code":"USA","location":{"type":"Point","coordinates":[-122.333253,47.603122]}},{"name":"Wetpaint","category_code":"web","description":"","address1":"270 Lafayette Street","address2":"Suite 505","zip_code":"10012","city":"New York","state_code":"NY","country_code":"USA","location":{"type":"Point","coordinates":[-73.9964312,40.7237306]}},{"name":"Zoho","category_code":"software","description":"Headquarters","address1":"4900 Hopyard Rd","address2":"Suite 310","zip_code":"94588","city":"Pleasanton","state_code":"CA","country_code":"USA","location":{"type":"Point","coordinates":[-121.904945,37.692934]}},{"name":"Scribd","category_code":"news","description":"HQ","address1":"539 Bryant Street","address2":"","zip_code":"94107","city":"San Francisco","state_code":"CA","country_code":"USA","location":{"type":"Point","coordinates":[-122.404052,37.789634]}},{"name":"Digg","category_code":"news","description":null,"address1":"135 Mississippi St","address2":"","zip_code":"94107","city":"San Francisco","state_code":"CA","country_code":"USA","location":{"type":"Point","coordinates":[-122.394523,37.764726]}},{"name":"MeetMoi","category_code":"social","description":null,"address1":"","address2":"","zip_code":"","city":"New York City","state_code":"NY","country_code":"USA","location":{"type":"Point","coordinates":[-73.985506,40.757929]}},{"name":"Joost","category_code":"games_video","description":"","address1":"100 5th Ave Fl 6","address2":"","zip_code":"10011-6903","city":"New York","state_code":"NY","country_code":"USA","location":{"type":"Point","coordinates":[-74.0094471,40.7464969]}},{"name":"Babelgum","category_code":"games_video","description":"","address1":"","address2":"","zip_code":"","city":"London","state_code":null,"country_code":"GBR","location":{"type":"Point","coordinates":[-6.267494,53.344104]}},{"name":"Twitter","category_code":"social","description":"","address1":"1355 Market St.","address2":"","zip_code":"94103","city":"San Francisco","state_code":"CA","country_code":"USA","location":{"type":"Point","coordinates":[-122.4169244,37.7768052]}},{"name":"Powerset","category_code":"search","description":null,"address1":"475 Brannan St","address2":"","zip_code":"94107","city":"San Francisco","state_code":"CA","country_code":"USA","location":{"type":"Point","coordinates":[-122.395289,37.778613]}},{"name":"Facebook","category_code":"social","description":"Headquarters","address1":"1601 Willow Road","address2":"","zip_code":"94025","city":"Menlo Park","state_code":"CA","country_code":"USA","location":{"type":"Point","coordinates":[-122.151801,37.41605]}},{"name":"Facebook","category_code":"social","description":"Europe HQ","address1":"","address2":"","zip_code":"","city":"Dublin","state_code":null,"country_code":"IRL","location":{"type":"Point","coordinates":[-6.267494,53.344104]}},{"name":"Facebook","category_code":"social","description":"New York","address1":"340 Madison Ave","address2":"","zip_code":"10017","city":"New York","state_code":"NY","country_code":"USA","location":{"type":"Point","coordinates":[-73.9792469,40.7557162]}},{"name":"Sparter","category_code":"games_video","description":null,"address1":null,"address2":null,"zip_code":null,"city":null,"state_code":null,"country_code":"USA","location":{"type":"Point","coordinates":[-95.712891,37.09024]}},{"name":"Mahalo","category_code":"web","description":"","address1":"3525 Eastham Dr.","address2":"","zip_code":"90232","city":"Culver City","state_code":"CA","country_code":"USA","location":{"type":"Point","coordinates":[-118.487267,34.017606]}},{"name":"Kyte","category_code":"games_video","description":null,"address1":"442 Post Street","address2":"10th Floor","zip_code":"94102","city":"San Francisco","state_code":"CA","country_code":"USA","location":{"type":"Point","coordinates":[-122.409173,37.788482]}},{"name":"Wesabe","category_code":"web","description":null,"address1":"400 Montgomery St, Suite 900","address2":null,"zip_code":"94104","city":"San Francisco","state_code":"CA","country_code":"USA","location":{"type":"Point","coordinates":[-122.402567,37.793148]}},{"name":"Veoh","category_code":"games_video","description":"","address1":"10180 Telesis Court Suite","address2":"Suite  400","zip_code":"92121","city":"San Diego","state_code":"CA","country_code":"USA","location":{"type":"Point","coordinates":[-117.20834,32.902266]}},{"name":"Thoof","category_code":"web","description":null,"address1":null,"address2":null,"zip_code":null,"city":"Austin","state_code":"TX","country_code":"USA","location":{"type":"Point","coordinates":[-97.745209,30.268735]}},{"name":"Jangl SMS","category_code":"web","description":"","address1":"6601 Owens Dr # 240","address2":"","zip_code":"94588","city":"Pleasanton","state_code":"CA","country_code":"USA","location":{"type":"Point","coordinates":[-121.907768,37.697805]}},{"name":"Jingle Networks","category_code":"mobile","description":"","address1":"475 Park Ave South","address2":"10th Floor","zip_code":"10016","city":"New York","state_code":"NY","country_code":"USA","location":{"type":"Point","coordinates":[-122.173887,37.480999]}},{"name":"LifeLock","category_code":"security","description":"","address1":"60 E. Rio Salado Pkwy, Suite 400","address2":"","zip_code":"85281","city":"Tempe","state_code":"AZ","country_code":"USA","location":{"type":"Point","coordinates":[-111.938739,33.429859]}},{"name":"AddThis","category_code":"advertising","description":"HQ - Virginia","address1":"1595 Spring Hill Road","address2":"Suite 300","zip_code":"22182","city":"Vienna","state_code":"VA","country_code":"USA","location":{"type":"Point","coordinates":[-77.245195,38.926172]}},{"name":"AddThis","category_code":"advertising","description":"New York Office","address1":"568 Broadway","address2":"11th Floor, Suite 1105","zip_code":"10012","city":"New York","state_code":"NY","country_code":"USA","location":{"type":"Point","coordinates":[-73.996876,40.724604]}},{"name":"AddThis","category_code":"advertising","description":"Los Angeles Office","address1":"10555-A Jefferson Blvd.","address2":"","zip_code":"90232","city":"Culver City","state_code":"CA","country_code":"USA","location":{"type":"Point","coordinates":[-118.380954,34.0263021]}},{"name":"AddThis","category_code":"advertising","description":"Chicago Office","address1":"225 West Washington","address2":"Ste. 2200","zip_code":"60606","city":"Chicago","state_code":"IL","country_code":"USA","location":null},{"name":"AddThis","category_code":"advertising","description":"San Francisco Office","address1":"505 Montgomery Street","address2":"10th Floor, Suite 42","zip_code":"94111","city":"San Francisco","state_code":"CA","country_code":"USA","location":null},{"name":"AddThis","category_code":"advertising","description":"Michigan Office","address1":"2605 Crooks Road","address2":"Unit A","zip_code":"48084","city":"Troy","state_code":"MI","country_code":"USA","location":{"type":"Point","coordinates":[-83.167884,42.557958]}},{"name":"OpenX","category_code":"advertising","description":"Headquarters","address1":"888 East Walnut Street","address2":"","zip_code":"91101","city":"Pasadena","state_code":"CA","country_code":"USA","location":{"type":"Point","coordinates":[-118.1327468,34.1494713]}},{"name":"OpenX","category_code":"advertising","description":"New York","address1":"584 Broadway","address2":"8th Floor","zip_code":"10012","city":"New York","state_code":"NY","country_code":"USA","location":null},{"name":"OpenX","category_code":"advertising","description":"London","address1":"1 Maple Place","address2":"","zip_code":"W1T 4BB","city":"London","state_code":null,"country_code":"GBR","location":null},{"name":"OpenX","category_code":"advertising","description":"Tokyo","address1":"4-12-25 Minami-Azabu","address2":"Minato-ku","zip_code":"1060047","city":"Tokyo","state_code":null,"country_code":"JPN","location":null},{"name":"OpenX","category_code":"advertising","description":"Munich","address1":"Maximilianstrasse 35a","address2":"","zip_code":"80539","city":"Munich","state_code":null,"country_code":"DEU","location":null},{"name":"Prosper","category_code":"finance","description":"","address1":"101 2nd Street","address2":"15th Floor","zip_code":"94105","city":"San Francisco","state_code":"CA","country_code":"USA","location":{"type":"Point","coordinates":[-122.402524,37.78976]}},{"name":"Stickam","category_code":"games_video","description":"","address1":"1975 pads rd","address2":"Suite 3000","zip_code":"90071","city":"Los Angeles","state_code":"CA","country_code":"USA","location":{"type":"Point","coordinates":[-118.254558,34.051409]}},{"name":"blogTV","category_code":"games_video","description":"Headquarters","address1":"30 Ben Gurion St.","address2":"","zip_code":"52573","city":"Ramat Gan","state_code":null,"country_code":"ISR","location":{"type":"Point","coordinates":[34.851612,31.046051]}},{"name":"Jajah","category_code":"mobile","description":"Jajah HQ","address1":"2513 Charleston Road","address2":"Suite 102","zip_code":"94043","city":"Mountain View","state_code":"CA","country_code":"USA","location":{"type":"Point","coordinates":[-122.0899512,37.4233896]}},{"name":"AdaptiveBlue","category_code":"games_video","description":"","address1":"131 Varick St","address2":"","zip_code":"10013","city":"NYC","state_code":"NY","country_code":"USA","location":{"type":"Point","coordinates":[-74.3372,40.801358]}},{"name":"Pando Networks","category_code":"games_video","description":null,"address1":"520 Broadway","address2":"10th Floor","zip_code":"10012","city":"New York","state_code":"NY","country_code":"USA","location":{"type":"Point","coordinates":[-73.99873,40.722655]}},{"name":"Livestream","category_code":"games_video","description":"Livestream HQ","address1":"111 8th Avenue, #1509","address2":"","zip_code":"10011","city":"New York","state_code":"NY","country_code":"USA","location":{"type":"Point","coordinates":[-73.995625,40.726155]}},{"name":"YouTube","category_code":"games_video","description":"Corporate Headquarters","address1":"901 Cherry Ave","address2":"","zip_code":"94066","city":"San Bruno","state_code":"CA","country_code":"USA","location":{"type":"Point","coordinates":[-122.426804,37.627971]}},{"name":"Ustream","category_code":"games_video","description":"San Francisco Office","address1":"410 Townsend","address2":"Suite 400","zip_code":"94107","city":"San Francisco","state_code":"CA","country_code":"USA","location":{"type":"Point","coordinates":[-122.07948,37.392936]}},{"name":"Ustream","category_code":"games_video","description":"Los Angeles Office","address1":"6725 W Sunset Blvd","address2":"Suite 320","zip_code":"90028","city":"Los Angeles","state_code":"CA","country_code":"USA","location":null},{"name":"Ustream","category_code":"games_video","description":"Budapest Office","address1":"","address2":"","zip_code":"","city":"Budapest","state_code":null,"country_code":"HUN","location":null},{"name":"GrandCentral","category_code":"mobile","description":null,"address1":"48389 Fremont Blvd., Suite #110","address2":null,"zip_code":"94538","city":"Fremont","state_code":"CA","country_code":"USA","location":{"type":"Point","coordinates":[-121.932202,37.465645]}},{"name":"AllPeers","category_code":"web","description":null,"address1":null,"address2":null,"zip_code":null,"city":"Oxford","state_code":null,"country_code":"GBR","location":{"type":"Point","coordinates":[-1.255824,51.752276]}},{"name":"Pownce","category_code":"web","description":"","address1":"1459 18th Street, Suite 142","address2":"","zip_code":"94107","city":"San Francisco","state_code":"CA","country_code":"USA","location":{"type":"Point","coordinates":[-122.397224,37.762541]}},{"name":"CriticalMetrics","category_code":"web","description":null,"address1":null,"address2":null,"zip_code":null,"city":null,"state_code":"CA","country_code":"USA","location":{"type":"Point","coordinates":[-119.306607,37.269175]}},{"name":"ZenZui","category_code":"mobile","description":null,"address1":null,"address2":null,"zip_code":null,"city":"Seattle","state_code":"WA","country_code":"USA","location":{"type":"Point","coordinates":[-122.347533,47.620716]}},{"name":"Wize","category_code":"ecommerce","description":"","address1":"1110 Burlingame Ave","address2":"Suite 300","zip_code":"94010","city":"Burlingame","state_code":"CA","country_code":"USA","location":{"type":"Point","coordinates":[-122.302262,37.559287]}},{"name":"CastTV","category_code":"games_video","description":null,"address1":"374 Brannan St.","address2":null,"zip_code":"94107","city":"San Francisco","state_code":"CA","country_code":"USA","location":{"type":"Point","coordinates":[-122.393913,37.780716]}},{"name":"Jobster","category_code":"search","description":null,"address1":"3131 Elliott Avenue Suite 600","address2":null,"zip_code":"98121","city":"Seattle","state_code":"WA","country_code":"USA","location":{"type":"Point","coordinates":[-122.357242,47.617682]}},{"name":"SodaHead","category_code":"web","description":"","address1":"16161 Ventura Blvd.","address2":"Suite C PMB 461","zip_code":"91436","city":"Encino","state_code":"CA","country_code":"USA","location":{"type":"Point","coordinates":[-119.306607,37.269175]}},{"name":"SellABand","category_code":"games_video","description":null,"address1":"Harderhook 22","address2":null,"zip_code":null,"city":"46395 Bocholt","state_code":null,"country_code":"DEU","location":{"type":"Point","coordinates":[6.553452,51.808933]}},{"name":"Spock","category_code":"search","description":"QLL COMMUNICATIONS","address1":"P.O. BOX 150","address2":"","zip_code":"13457","city":"SCHUYLER LAKE","state_code":"NY","country_code":"USA","location":{"type":"Point","coordinates":[-122.217964,37.488336]}},{"name":"iSkoot","category_code":"mobile","description":null,"address1":null,"address2":null,"zip_code":null,"city":"Cambridge","state_code":"MA","country_code":"USA","location":{"type":"Point","coordinates":[-71.118487,42.375392]}},{"name":"iSkoot","category_code":"mobile","description":"iSkoot HQ","address1":"501 2nd Street","address2":"Suite 216","zip_code":"94107","city":"San Francisco","state_code":"CA","country_code":"USA","location":{"type":"Point","coordinates":[-122.396744,37.780134]}},{"name":"Revision3","category_code":"games_video","description":"HQ","address1":"2415 3rd St","address2":"","zip_code":"94107","city":"San Francisco","state_code":"CA","country_code":"USA","location":{"type":"Point","coordinates":[-122.388243,37.757758]}},{"name":"Funny Or Die","category_code":"games_video","description":"Head Quarters","address1":"167 2nd Ave","address2":"","zip_code":"94401","city":"San Mateo","state_code":"CA","country_code":"USA","location":{"type":"Point","coordinates":[-122.137444,37.421621]}},{"name":"EQO","category_code":"mobile","description":null,"address1":"","address2":"","zip_code":"","city":"Vancouver","state_code":null,"country_code":"CAN","location":{"type":"Point","coordinates":[-123.138565,49.263588]}},{"name":"Zlio","category_code":"ecommerce","description":"","address1":"55 rue Servan","address2":"","zip_code":"75011","city":"Paris","state_code":null,"country_code":"FRA","location":{"type":"Point","coordinates":[2.381836,48.862825]}},{"name":"ClipBlast!","category_code":"web","description":null,"address1":"5737 Kanan Rd.","address2":"","zip_code":"91301","city":"Agoura Hills","state_code":"CA","country_code":"USA","location":{"type":"Point","coordinates":[-118.756618,34.155211]}},{"name":"Spotplex","category_code":"web","description":null,"address1":"3160 De La Cruz Blvd., #202","address2":null,"zip_code":"95054","city":"Santa Clara","state_code":"CA","country_code":"USA","location":{"type":"Point","coordinates":[-121.940749,37.380101]}},{"name":"Zamzar","category_code":"web","description":"","address1":"","address2":"","zip_code":"SO18 1NH","city":"Southampton","state_code":null,"country_code":"GBR","location":{"type":"Point","coordinates":[-1.3610845,50.9444598]}},{"name":"Jaiku","category_code":"mobile","description":null,"address1":"Lannrotinkatu 32 D 51, 00180","address2":"","zip_code":"","city":"Helsinki","state_code":null,"country_code":"FIN","location":{"type":"Point","coordinates":[24.93105,60.16377]}},{"name":"TripUp","category_code":"web","description":null,"address1":null,"address2":null,"zip_code":null,"city":"Los Angeles","state_code":"CA","country_code":"USA","location":{"type":"Point","coordinates":[-118.243425,34.052187]}},{"name":"Wakoopa","category_code":"web","description":"Arts & Crafts","address1":"Damrak 70, 254","address2":"","zip_code":"1012LM","city":"Amsterdam","state_code":null,"country_code":"NLD","location":{"type":"Point","coordinates":[4.8948623,52.3745228]}},{"name":"blinkx","category_code":"games_video","description":null,"address1":"1 Market Street","address2":"19th Floor, Spear Tower","zip_code":"94105","city":"San Francisco","state_code":"CA","country_code":"USA","location":{"type":"Point","coordinates":[-122.395089,37.793819]}},{"name":"Fleck","category_code":"web","description":null,"address1":"Oosterdokskade 5","address2":null,"zip_code":"1017TE","city":"Amsterdam","state_code":null,"country_code":"NLD","location":{"type":"Point","coordinates":[4.908556,52.375595]}},{"name":"Zooomr","category_code":"web","description":null,"address1":null,"address2":null,"zip_code":null,"city":"San Francisco","state_code":"CA","country_code":"USA","location":{"type":"Point","coordinates":[-122.419204,37.775196]}},{"name":"Yapta","category_code":"travel","description":null,"address1":"315 1st Avenue S","address2":"Floor 3","zip_code":"98104","city":"Seattle","state_code":"WA","country_code":"USA","location":{"type":"Point","coordinates":[-122.334264,47.599925]}},{"name":"Yapta","category_code":"travel","description":"","address1":"159 Jackson Street","address2":"","zip_code":"98104","city":"Seattle","state_code":"WA","country_code":"USA","location":null},{"name":"Mashery","category_code":"enterprise","description":"Headquarters","address1":"717 Market Street","address2":"Suite 300","zip_code":"94103","city":"San Francisco","state_code":"CA","country_code":"USA","location":{"type":"Point","coordinates":[-122.4038047,37.7870842]}},{"name":"Mashery","category_code":"enterprise","description":"New York Office","address1":"594 Broadway, Suite 407","address2":"","zip_code":"10012","city":"New York","state_code":"NY","country_code":"USA","location":null},{"name":"Mashery","category_code":"enterprise","description":"Boston Office","address1":"374 Congress St., SUITE 304","address2":"","zip_code":"02210","city":"Boston","state_code":"MA","country_code":"USA","location":null},{"name":"ConVerdge","category_code":"enterprise","description":"","address1":"","address2":"","zip_code":"90401","city":"Santa Monica","state_code":"CA","country_code":"USA","location":{"type":"Point","coordinates":[-118.495155,34.0126379]}},{"name":"Pageflakes","category_code":"web","description":null,"address1":"795 Folsom St","address2":"1st Floor","zip_code":"94114","city":"San Francisco","state_code":"CA","country_code":"USA","location":{"type":"Point","coordinates":[-122.414689,37.758113]}},{"name":"coRank","category_code":"web","description":null,"address1":null,"address2":null,"zip_code":"94086","city":"Sunnyvale","state_code":"CA","country_code":"USA","location":{"type":"Point","coordinates":[-122.02421,37.36965]}},{"name":"Swivel","category_code":"search","description":null,"address1":"199 Fremont St.","address2":"12th Floor","zip_code":"94105","city":"San Francisco","state_code":"CA","country_code":"USA","location":{"type":"Point","coordinates":[-122.395184,37.789268]}},{"name":"Dailymotion","category_code":"news","description":"","address1":"","address2":"","zip_code":"","city":"Paris","state_code":null,"country_code":"FRA","location":null},{"name":"Dailymotion","category_code":"news","description":"","address1":"","address2":"","zip_code":"","city":"","state_code":null,"country_code":"USA","location":null},{"name":"Dailymotion","category_code":"news","description":"","address1":"","address2":"","zip_code":"","city":"London","state_code":null,"country_code":"GBR","location":null},{"name":"Dailymotion","category_code":"news","description":"","address1":"","address2":"","zip_code":"","city":"","state_code":null,"country_code":"JPN","location":null},{"name":"Yelp","category_code":"search","description":"","address1":"706 Mission Street","address2":"7th Floor","zip_code":"94103","city":"San Francisco","state_code":"CA","country_code":"USA","location":{"type":"Point","coordinates":[-122.402195,37.786183]}},{"name":"KickApps","category_code":"enterprise","description":"Headquarters","address1":"26 W 17th Street","address2":"2nd Floor","zip_code":"10011","city":"New York","state_code":"NY","country_code":"USA","location":{"type":"Point","coordinates":[-73.9843328,40.7516611]}},{"name":"KickApps","category_code":"enterprise","description":"Los Angeles Office","address1":"1212 Abbott Kinney Blvd","address2":"Suite B","zip_code":"90291","city":"Venice","state_code":"CA","country_code":"USA","location":{"type":"Point","coordinates":[-118.468707,33.991101]}},{"name":"KickApps","category_code":"enterprise","description":"San Francisco Office","address1":"607 Market St","address2":"Suite 5","zip_code":"94105","city":"San Francisco","state_code":"CA","country_code":"USA","location":{"type":"Point","coordinates":[-122.4016144,37.7891086]}},{"name":"KickApps","category_code":"enterprise","description":"UK Office","address1":"212 Picadilly","address2":"","zip_code":"W1J 9HF","city":"London","state_code":null,"country_code":"GBR","location":{"type":"Point","coordinates":[-0.1356235,51.5094731]}},{"name":"CrowdVine","category_code":"web","description":"","address1":"53 S Knoll Rd","address2":"","zip_code":"94941-2464","city":"Mill Valley","state_code":"CA","country_code":"USA","location":{"type":"Point","coordinates":[-122.511687,37.90077]}},{"name":"Netvibes","category_code":"web","description":"Paris","address1":"114, rue Cardinet","address2":"","zip_code":"75017","city":"Paris","state_code":null,"country_code":"FRA","location":{"type":"Point","coordinates":[2.34668,48.870806]}},{"name":"Netvibes","category_code":"web","description":"San Francisco","address1":"49 Geary","address2":"Suite 234","zip_code":"94108","city":"San Francisco","state_code":"CA","country_code":"USA","location":null},{"name":"Instructables","category_code":"web","description":"","address1":"489 Clementina St.","address2":"","zip_code":"94103","city":"San Francisco","state_code":"CA","country_code":"USA","location":{"type":"Point","coordinates":[-122.4058887,37.7791761]}},{"name":"TripHub","category_code":"web","description":null,"address1":"2033 6th Avenue","address2":"Suite 308","zip_code":"98121","city":"Seattle","state_code":"WA","country_code":"USA","location":{"type":"Point","coordinates":[-122.338793,47.614653]}},{"name":"Slide","category_code":"public_relations","description":"","address1":"301 Brannan Street","address2":"6th Floor","zip_code":"94107","city":"San Francisco","state_code":"CA","country_code":"USA","location":{"type":"Point","coordinates":[-122.392144,37.781427]}},{"name":"Flickr","category_code":"web","description":"HQ","address1":"701 1st ave.","address2":"","zip_code":"94089","city":"Sunnyvale","state_code":"CA","country_code":"USA","location":{"type":"Point","coordinates":[-122.025485,37.418531]}},{"name":"RockYou","category_code":"games_video","description":"","address1":"585 Broadway","address2":"Suite A","zip_code":"94063","city":"Redwood City","state_code":"CA","country_code":"USA","location":{"type":"Point","coordinates":[-122.206893,37.484619]}},{"name":"FeedBurner","category_code":"web","description":null,"address1":"20 W Kinzie","address2":"9th Floor","zip_code":"60610","city":"Chicago","state_code":"IL","country_code":"USA","location":{"type":"Point","coordinates":[-87.628912,41.889474]}},{"name":"Bebo","category_code":"web","description":"","address1":"425 Bush Street","address2":"Suite 200","zip_code":"94108","city":"San Francisco","state_code":"CA","country_code":"USA","location":{"type":"Point","coordinates":[-122.401116,37.782103]}},{"name":"WeFi","category_code":"mobile","description":null,"address1":"12587 Fair Lakes Circle","address2":"Suite 252","zip_code":"22033","city":"Fairfax","state_code":"VA","country_code":"USA","location":{"type":"Point","coordinates":[-95.712891,37.09024]}},{"name":"TVtrip","category_code":"web","description":null,"address1":"","address2":"","zip_code":"","city":"Paris","state_code":null,"country_code":"FRA","location":{"type":"Point","coordinates":[2.350987,48.856667]}},{"name":"Dogster","category_code":"web","description":null,"address1":"555 De Haro Street, #350","address2":"","zip_code":"","city":"San Francisco","state_code":"CA","country_code":"USA","location":{"type":"Point","coordinates":[-122.400909,37.762681]}},{"name":"Sway","category_code":"advertising","description":null,"address1":"8313 Greenway Blvd Suite 100","address2":"","zip_code":"53562","city":"Middleton","state_code":"WI","country_code":"USA","location":{"type":"Point","coordinates":[-89.522805,43.090756]}},{"name":"WatZatSong","category_code":"web","description":null,"address1":"3, rue Crespin du Gast","address2":null,"zip_code":"75011","city":"Paris","state_code":null,"country_code":"FRA","location":{"type":"Point","coordinates":[2.381514,48.866323]}},{"name":"TheFind","category_code":"ecommerce","description":"","address1":"310 Villa Street","address2":"","zip_code":"94041","city":"Mountain View","state_code":"CA","country_code":"USA","location":{"type":"Point","coordinates":[-122.073463,37.391502]}},{"name":"PBworks","category_code":"enterprise","description":"Headquarters","address1":"1825 S. Grant St.","address2":"Suite 850","zip_code":"94402","city":"San Mateo","state_code":"CA","country_code":"USA","location":null},{"name":"Loomia","category_code":"web","description":null,"address1":"900 Kearny St, Suite 299","address2":null,"zip_code":"94133","city":"San Francisco","state_code":"CA","country_code":"USA","location":{"type":"Point","coordinates":[-122.404869,37.796396]}},{"name":"Newsvine","category_code":"web","description":null,"address1":"101 Elliott Ave. West","address2":"Suite 120","zip_code":"98119","city":"Seattle","state_code":"WA","country_code":"USA","location":{"type":"Point","coordinates":[-122.358484,47.618599]}},{"name":"FlickIM","category_code":"mobile","description":"HQ","address1":"2030 Addison St.","address2":"Suite 620","zip_code":"","city":"Berkeley","state_code":"CA","country_code":"USA","location":{"type":"Point","coordinates":[-122.269259,37.870744]}},{"name":"Terabitz","category_code":"web","description":"HQ","address1":"5 Palo Alto Sq Ste 220","address2":"","zip_code":"94306-2123","city":"Palo Alto","state_code":"CA","country_code":"USA","location":{"type":"Point","coordinates":[-122.159928,37.437328]}},{"name":"Jamendo","category_code":"other","description":"","address1":"76 Avenue de la Libert\u00e9","address2":"","zip_code":"1930","city":"Luxembourg","state_code":null,"country_code":"LUX","location":{"type":"Point","coordinates":[6.1329985,49.6026778]}},{"name":"Meebo","category_code":"web","description":"Headquarters","address1":"215 Castro Street","address2":"3rd Floor","zip_code":"94041","city":"Mountain View","state_code":"CA","country_code":"USA","location":{"type":"Point","coordinates":[-122.079017,37.393679]}},{"name":"Meebo","category_code":"web","description":"San Francisco","address1":"101 New Montgomery Street, 5th Floor","address2":"","zip_code":"94105","city":"San Francisco","state_code":"CA","country_code":"USA","location":null},{"name":"Meebo","category_code":"web","description":"Los Angeles","address1":"2525 Main Street, Suite 107","address2":"","zip_code":"90405","city":"Santa Monica","state_code":"CA","country_code":"USA","location":null},{"name":"Meebo","category_code":"web","description":"New York","address1":"45 E. 20th Street, 12th Floor","address2":"","zip_code":"10003","city":"New York","state_code":"NY","country_code":"USA","location":null},{"name":"Meebo","category_code":"web","description":"Chicago","address1":"311 W. Superior Street, Suite 209","address2":"","zip_code":"60654","city":"Chicago","state_code":"IL","country_code":"USA","location":null},{"name":"Eventbrite","category_code":"web","description":"HQ","address1":"651 Brannan","address2":"Suite 110","zip_code":"94107","city":"San Francisco","state_code":"CA","country_code":"USA","location":{"type":"Point","coordinates":[-122.39071,37.779507]}},{"name":"Go2Web20","category_code":"web","description":null,"address1":"","address2":"","zip_code":"","city":"Tel Aviv","state_code":null,"country_code":"ISR","location":{"type":"Point","coordinates":[34.7595,32.0554]}},{"name":"Wink","category_code":"search","description":"","address1":"","address2":"","zip_code":"94041","city":"Mountain View","state_code":"CA","country_code":"USA","location":{"type":"Point","coordinates":[-122.072981,37.40047]}},{"name":"Kaboodle","category_code":"ecommerce","description":"","address1":"640 W. California Ave.","address2":"Suite 220","zip_code":"94041","city":"Sunnyvale","state_code":"CA","country_code":"USA","location":{"type":"Point","coordinates":[-122.036301,37.382162]}},{"name":"coComment","category_code":"web","description":null,"address1":null,"address2":null,"zip_code":null,"city":"Geneva","state_code":null,"country_code":"CHE","location":{"type":"Point","coordinates":[6.139959,46.20381]}},{"name":"Conduit","category_code":"advertising","description":"","address1":"950 Tower Lane","address2":"Suite 1788","zip_code":"94404","city":"Foster City","state_code":"CA","country_code":"USA","location":{"type":"Point","coordinates":[-122.325248,37.561877]}},{"name":"Hotelicopter","category_code":"web","description":"","address1":"103 W. Main Street","address2":"","zip_code":"22902","city":"Charlottesville","state_code":"VA","country_code":"USA","location":{"type":"Point","coordinates":[-78.48158,38.030823]}},{"name":"Carbonite","category_code":"network_hosting","description":"Headquarters","address1":"","address2":"","zip_code":"02116","city":"Boston","state_code":"MA","country_code":"USA","location":{"type":"Point","coordinates":[-71.076869,42.350571]}},{"name":"GigaOM","category_code":"news","description":null,"address1":"","address2":"","zip_code":"","city":"San Francisco","state_code":"CA","country_code":"USA","location":{"type":"Point","coordinates":[-122.419204,37.775196]}},{"name":"GigaOM","category_code":"news","description":"","address1":"","address2":"","zip_code":"","city":"New York","state_code":"NY","country_code":"USA","location":{"type":"Point","coordinates":[-74.0059731,40.7143528]}},{"name":"MotionDSP","category_code":"software","description":"","address1":"700 Airport Blvd","address2":"","zip_code":"94010","city":"Burlingame","state_code":"CA","country_code":"USA","location":null},{"name":"Redfin","category_code":"real_estate","description":"","address1":"2025 1st Ave","address2":"Suite 600","zip_code":"98121","city":"Seattle","state_code":"WA","country_code":"USA","location":{"type":"Point","coordinates":[-122.333253,47.603122]}},{"name":"Techmeme","category_code":"web","description":"","address1":"","address2":"","zip_code":"94107","city":"San Francisco","state_code":"CA","country_code":"USA","location":{"type":"Point","coordinates":[-122.3985871,37.7618242]}},{"name":"Zvents","category_code":"web","description":null,"address1":"1875 South Grant Street","address2":"Suite 800","zip_code":null,"city":"San Mateo","state_code":"CA","country_code":"USA","location":{"type":"Point","coordinates":[-122.301534,37.553121]}},{"name":"Box","category_code":"network_hosting","description":"HQ","address1":"4440 El Camino Real","address2":"","zip_code":"94022","city":"Los Altos","state_code":"CA","country_code":"USA","location":{"type":"Point","coordinates":[-122.143701,37.425801]}},{"name":"Cofoundr","category_code":"network_hosting","description":null,"address1":null,"address2":null,"zip_code":"94109","city":null,"state_code":"CA","country_code":"USA","location":{"type":"Point","coordinates":[-122.420903,37.796164]}},{"name":"Oodle","category_code":"social","description":null,"address1":"60 E. 3rd Ave.","address2":"Suite 410","zip_code":"94410","city":"San Mateo","state_code":"CA","country_code":"USA","location":{"type":"Point","coordinates":[-122.324621,37.563585]}},{"name":"Ujogo","category_code":"web","description":null,"address1":null,"address2":null,"zip_code":"94107","city":"San Francisco","state_code":"CA","country_code":"USA","location":{"type":"Point","coordinates":[-122.392861,37.76785]}},{"name":"Seesmic","category_code":"web","description":"","address1":"1550 Bryant Street","address2":"Suite 890","zip_code":"94103","city":"San Francisco","state_code":"CA","country_code":"USA","location":{"type":"Point","coordinates":[-122.419204,37.775196]}},{"name":"Eventful","category_code":"web","description":"","address1":"12626 High Bluff Drive","address2":"Suite 100","zip_code":"92130","city":"San Diego","state_code":"CA","country_code":"USA","location":{"type":"Point","coordinates":[-117.206292,32.872081]}},{"name":"Eventful","category_code":"web","description":"","address1":"5757 Wilshire Blvd.","address2":"Suite 500","zip_code":"90036","city":"Los Angeles","state_code":"CA","country_code":"USA","location":null},{"name":"ooma","category_code":"hardware","description":"","address1":"1840 Embarcadero Road","address2":"","zip_code":"94303","city":"Palo Alto","state_code":"CA","country_code":"USA","location":{"type":"Point","coordinates":[-122.116026,37.451958]}},{"name":"oDesk","category_code":"web","description":"","address1":"901 Marshall Street","address2":"Suite 200","zip_code":"94063","city":"Redwood City","state_code":"CA","country_code":"USA","location":{"type":"Point","coordinates":[-122.178557,37.479952]}},{"name":"stylediary","category_code":"web","description":null,"address1":"","address2":null,"zip_code":"90036","city":"","state_code":"CA","country_code":"USA","location":{"type":"Point","coordinates":[-118.350486,34.070436]}},{"name":"Simply Hired","category_code":"search","description":"HQ","address1":"370 San Aleso Ave","address2":"Ste. 200","zip_code":"94085","city":"Sunnyvale","state_code":"CA","country_code":"USA","location":{"type":"Point","coordinates":[-122.0780632,37.4219165]}},{"name":"Gumiyo","category_code":"web","description":"","address1":"21021 Ventura Blvd.","address2":"Suite 220","zip_code":"91364","city":"Woodland Hills","state_code":"CA","country_code":"USA","location":{"type":"Point","coordinates":[-118.601532,34.184598]}},{"name":"MyPublicInfo","category_code":"web","description":null,"address1":"1901 Fort Myer Drive","address2":"","zip_code":"22209","city":"Arlington","state_code":"VA","country_code":"USA","location":{"type":"Point","coordinates":[-77.072003,38.897428]}},{"name":"GoingOn","category_code":"software","description":"GoingOn Networks, Inc.","address1":"450 Sansome Street","address2":"12th Floor","zip_code":"94111","city":"San Francisco","state_code":"CA","country_code":"USA","location":{"type":"Point","coordinates":[-122.392142,37.782263]}},{"name":"Checkster","category_code":"web","description":null,"address1":"35 Miller ave, suite 183","address2":null,"zip_code":"94941","city":"Mill Valley","state_code":"CA","country_code":"USA","location":{"type":"Point","coordinates":[-122.547445,37.905544]}},{"name":"Flixster","category_code":"web","description":"","address1":"208 Utah St","address2":"","zip_code":"94103","city":"San Francisco","state_code":"CA","country_code":"USA","location":{"type":"Point","coordinates":[-122.406676,37.766909]}},{"name":"IceRocket","category_code":"search","description":null,"address1":null,"address2":null,"zip_code":null,"city":"Dallas","state_code":"TX","country_code":"USA","location":{"type":"Point","coordinates":[-96.797111,32.781078]}},{"name":"barablu","category_code":"mobile","description":null,"address1":"58 Marsh Wall Regatta House","address2":null,"zip_code":"E14 9TP","city":"London","state_code":null,"country_code":"GBR","location":null},{"name":"spigit","category_code":"software","description":"","address1":"311 Ray Street","address2":"","zip_code":"94566","city":"Pleasanton","state_code":"CA","country_code":"USA","location":{"type":"Point","coordinates":[-121.8731805,37.6637279]}},{"name":"spigit","category_code":"software","description":"One Freedom Drive","address1":"11951 Freedom Drive","address2":"13 FL","zip_code":"20190","city":"Reston","state_code":"VA","country_code":"USA","location":{"type":"Point","coordinates":[-77.3592746,38.9590083]}},{"name":"spigit","category_code":"software","description":"","address1":"10 Margaret Street","address2":"","zip_code":"W1W 8RL","city":"London","state_code":null,"country_code":"GBR","location":{"type":"Point","coordinates":[-0.1394759,51.5170385]}},{"name":"ConnectMeAnywhere","category_code":"web","description":null,"address1":"14 Elgin Crescent","address2":null,"zip_code":null,"city":"London W11 2HX","state_code":null,"country_code":"GBR","location":{"type":"Point","coordinates":[-0.205349,51.514935]}},{"name":"Ohloh","category_code":"web","description":null,"address1":"2002 156th Avenue NE, Suite 200","address2":null,"zip_code":"98007","city":"Bellevue","state_code":"WA","country_code":"USA","location":null},{"name":"Bazaarvoice","category_code":"software","description":"Head Office","address1":"3900 N Capital of Texas Hwy","address2":"","zip_code":"78746","city":"Austin","state_code":"TX","country_code":"USA","location":{"type":"Point","coordinates":[-97.717667,30.407545]}},{"name":"Clipperz","category_code":"web","description":null,"address1":"Via Berti 137","address2":null,"zip_code":"48012","city":"Bagnacavallo","state_code":null,"country_code":"ITA","location":{"type":"Point","coordinates":[11.978686,44.418166]}},{"name":"ScanScout","category_code":"advertising","description":"Headquarters","address1":"295 Devonshire Street, 4th floor","address2":"","zip_code":"02110","city":"Boston","state_code":"MA","country_code":"USA","location":{"type":"Point","coordinates":[-71.051931,42.340889]}},{"name":"ScanScout","category_code":"advertising","description":"New York Office","address1":"450 Seventh Ave, Ste 209","address2":"","zip_code":"10011","city":"New York","state_code":"NY","country_code":"USA","location":{"type":"Point","coordinates":[-73.993158,40.739833]}},{"name":"ScanScout","category_code":"advertising","description":"Los Angeles Office","address1":"11601 Wilshire Blvd","address2":"","zip_code":"90025","city":"Los Angeles","state_code":"CA","country_code":"USA","location":{"type":"Point","coordinates":[-118.459995,34.050887]}},{"name":"Tagged","category_code":"social","description":"San Francisco, USA","address1":"P.O. Box 193152","address2":"","zip_code":"94119-3152","city":"San Francisco","state_code":"CA","country_code":"USA","location":{"type":"Point","coordinates":[-122.4186,37.7753]}},{"name":"ONEsite","category_code":"other","description":null,"address1":"14000 Quail Springs Parkway, Suite 3600","address2":null,"zip_code":"73134","city":"Oklahoma City","state_code":"OK","country_code":"USA","location":{"type":"Point","coordinates":[-97.5736,35.612679]}},{"name":"Kwiqq","category_code":"web","description":null,"address1":"Kwiqq, Sussex Innovation Centre, U. of Sussex","address2":null,"zip_code":"BN1 9SB","city":"Brighton","state_code":null,"country_code":"GBR","location":null},{"name":"Wallhogs","category_code":"public_relations","description":"","address1":"2217 Longview Dr.","address2":"","zip_code":"15601","city":"Greensburg","state_code":"PA","country_code":"USA","location":{"type":"Point","coordinates":[-79.462703,40.30305]}},{"name":"Indeed","category_code":"web","description":"","address1":"177 Broad St. 6th Floor","address2":"","zip_code":"06901","city":"Stamford","state_code":"CT","country_code":"USA","location":{"type":"Point","coordinates":[-73.558082,41.038155]}},{"name":"Indeed","category_code":"web","description":"Headquarters","address1":"7501 N. Capital of Texas Hwy","address2":"Building B","zip_code":"78731","city":"Austin","state_code":"TX","country_code":"USA","location":null},{"name":"GoLightly","category_code":"software","description":null,"address1":"9 Locust Ave.","address2":"","zip_code":"94941","city":"Mill Valley","state_code":"CA","country_code":"USA","location":{"type":"Point","coordinates":[-122.537302,37.898575]}},{"name":"Respectance","category_code":"web","description":"","address1":"","address2":"","zip_code":"","city":"San Mateo","state_code":"CA","country_code":"USA","location":{"type":"Point","coordinates":[-122.321836,37.55909]}},{"name":"Jaxtr","category_code":"mobile","description":null,"address1":"855 Oak Grove Ave.","address2":"Suite 100","zip_code":"94025","city":"Menlo Park","state_code":"CA","country_code":"USA","location":{"type":"Point","coordinates":[-122.18676,37.451026]}},{"name":"Curse","category_code":"games_video","description":"San Francisco","address1":"60 Broadway","address2":"","zip_code":"94111","city":"San Francisco","state_code":"CA","country_code":"USA","location":{"type":"Point","coordinates":[-122.399972,37.787092]}},{"name":"Curse","category_code":"games_video","description":"Huntsville","address1":"150 West Park Loop NW","address2":"","zip_code":"35806","city":"Huntsville","state_code":"AL","country_code":"USA","location":null},{"name":"PeerMe","category_code":"games_video","description":null,"address1":"2115 Landings Drive","address2":null,"zip_code":"94043","city":"Mountain View","state_code":"CA","country_code":"USA","location":{"type":"Point","coordinates":[-122.090188,37.419819]}},{"name":"Kiptronic","category_code":"advertising","description":"","address1":"300 Montgomery St.","address2":"Ste. 860","zip_code":"94104","city":"San Francisco","state_code":"CA","country_code":"USA","location":{"type":"Point","coordinates":[-122.402349,37.792394]}},{"name":"Zenfolio","category_code":"network_hosting","description":"","address1":"","address2":"","zip_code":"94025","city":"Menlo Park","state_code":"CA","country_code":"USA","location":{"type":"Point","coordinates":[-122.1802812,37.4484914]}},{"name":"FeVote","category_code":"web","description":"","address1":"","address2":"","zip_code":"94102","city":"San Francisco","state_code":"CA","country_code":"USA","location":{"type":"Point","coordinates":[-122.417928,37.779392]}},{"name":"JumpBox","category_code":"software","description":"","address1":"PO Box 15265","address2":"","zip_code":"85060","city":"Phoenix","state_code":"AZ","country_code":"USA","location":{"type":"Point","coordinates":[-111.944967,33.429864]}},{"name":"Grockit","category_code":"social","description":"","address1":"500 Third Street","address2":"Suite 260","zip_code":"94107","city":"San Francisco","state_code":"CA","country_code":"USA","location":{"type":"Point","coordinates":[-122.419204,37.775196]}},{"name":"Vuze","category_code":"games_video","description":"Headquarters","address1":"4 W. 4th Ave","address2":"","zip_code":"94402","city":"San Mateo","state_code":"CA","country_code":"USA","location":{"type":"Point","coordinates":[-122.2262606,37.4858654]}},{"name":"Phonezoo","category_code":"web","description":"","address1":"1270 Oakmead Pkwy, Suite 214","address2":"","zip_code":"94085","city":"Sunnyvale","state_code":"CA","country_code":"USA","location":{"type":"Point","coordinates":[-121.991471,37.386376]}},{"name":"Relationals","category_code":"web","description":null,"address1":"1230 Midas Way","address2":"Ste 210","zip_code":"94085","city":"Sunnyvale","state_code":"CA","country_code":"USA","location":{"type":"Point","coordinates":[-121.992132,37.384651]}},{"name":"Wishpot","category_code":"ecommerce","description":"Headquarters","address1":"911 Western Ave.","address2":"Suite 420","zip_code":"98104","city":"Seattle","state_code":"WA","country_code":"USA","location":{"type":"Point","coordinates":[-122.347533,47.620716]}},{"name":"Nononina","category_code":"web","description":"SF Bay Area","address1":"","address2":"","zip_code":"","city":"","state_code":"CA","country_code":"USA","location":{"type":"Point","coordinates":[-119.306607,37.269175]}},{"name":"PodTech","category_code":"games_video","description":null,"address1":"1801 Page Mill Rd - Suite 400","address2":null,"zip_code":"94304","city":"Palo Alto","state_code":"CA","country_code":"USA","location":{"type":"Point","coordinates":[-122.154176,37.408256]}},{"name":"NowPublic","category_code":"web","description":"","address1":"576 Seymour Street","address2":"Suite 204","zip_code":"","city":"Vancouver","state_code":null,"country_code":"CAN","location":{"type":"Point","coordinates":[-123.103986,49.283376]}},{"name":"Crackle","category_code":"games_video","description":"","address1":"10202 W. Washington Blvd","address2":"SPP 1127b","zip_code":"90232","city":"Culver City","state_code":"CA","country_code":"USA","location":{"type":"Point","coordinates":[-118.401579,34.017506]}},{"name":"Truphone","category_code":"mobile","description":"Tru UK \/ Head Office","address1":"4 Royal Mint Court","address2":"","zip_code":"EC3N 4HJ","city":"London","state_code":null,"country_code":"GBR","location":null},{"name":"Truphone","category_code":"mobile","description":"Tru Americas","address1":"245 Park Avenue","address2":"Suite 2463","zip_code":"10167","city":"New York","state_code":"NY","country_code":"USA","location":null},{"name":"Truphone","category_code":"mobile","description":"Tru Australia","address1":"Level 33, Australia Square","address2":"264 George Street","zip_code":"2000","city":"Sydney","state_code":null,"country_code":"AUS","location":null},{"name":"Truphone","category_code":"mobile","description":"Tru Spain","address1":"Gran Via, 6. 4th floor","address2":"","zip_code":"28013","city":"Madrid","state_code":null,"country_code":"ESP","location":null},{"name":"Truphone","category_code":"mobile","description":"Tru Netherlands","address1":"Jan van Eijcklaan 2-4","address2":"","zip_code":"3723BC","city":"Bilthoven","state_code":null,"country_code":"NLD","location":null},{"name":"Truphone","category_code":"mobile","description":"Tru Asia-Pac","address1":"Level 20, Infinitus Plaza","address2":"199 Des Voeux Road Central","zip_code":"","city":"Central","state_code":null,"country_code":"HKG","location":null},{"name":"DOmedia","category_code":"advertising","description":"World Headquarters","address1":"274 Marconi Blvd","address2":"Suite 400","zip_code":"43215","city":"Columbus","state_code":"OH","country_code":"USA","location":{"type":"Point","coordinates":[-83.005038,39.967704]}},{"name":"IntenseDebate","category_code":"web","description":null,"address1":null,"address2":null,"zip_code":null,"city":"Boulder","state_code":"CO","country_code":"USA","location":{"type":"Point","coordinates":[-105.276843,40.010492]}},{"name":"Rebtel","category_code":"mobile","description":"Headquarters","address1":"Fabrikorvagen 4","address2":"","zip_code":"131 52","city":"Nacka Strand","state_code":null,"country_code":"SWE","location":{"type":"Point","coordinates":[18.1582777,59.3167843]}},{"name":"Forbes","category_code":"web","description":"","address1":"60 5th Avenue","address2":"","zip_code":"10011","city":"New York","state_code":"NY","country_code":"USA","location":{"type":"Point","coordinates":[-73.993302,40.736416]}},{"name":"Lotame","category_code":"advertising","description":"Headquarters","address1":"8850 Stanford Blvd","address2":"Ste 2000","zip_code":"21045","city":"Columbia","state_code":"MD","country_code":"USA","location":{"type":"Point","coordinates":[-76.77514,39.205649]}},{"name":"Lotame","category_code":"advertising","description":"New York Office","address1":"440 Ninth Ave","address2":"18th Floor","zip_code":"10001","city":"New York","state_code":"MD","country_code":"USA","location":{"type":"Point","coordinates":[-73.995487,40.753631]}},{"name":"Lotame","category_code":"advertising","description":"Boston Office","address1":"485 Massachusetts Ave","address2":"Suite 300","zip_code":"02139","city":"Cambridge","state_code":"MD","country_code":"USA","location":{"type":"Point","coordinates":[-71.056604,42.359146]}},{"name":"Lotame","category_code":"advertising","description":"","address1":"203 N. LaSalle Street","address2":"Suite 2100","zip_code":"60601","city":"Chicago","state_code":"IL","country_code":"USA","location":null},{"name":"Lotame","category_code":"advertising","description":"","address1":"203 N. LaSalle Street","address2":"Suite 2100","zip_code":"60601","city":"Chicago","state_code":"IL","country_code":"USA","location":null},{"name":"Lotame","category_code":"advertising","description":"Chicago Office","address1":"203 N. LaSalle Street","address2":"Suite 2100","zip_code":"60601","city":"Chicago","state_code":"IL","country_code":"USA","location":null},{"name":"BuddyTV","category_code":"games_video","description":"Seattle Headquarters","address1":"190 Queen Anne Ave Suite 280","address2":"","zip_code":"98109","city":"Seattle","state_code":"WA","country_code":"USA","location":{"type":"Point","coordinates":[-122.356756,47.61968]}},{"name":"Reddit","category_code":"web","description":"","address1":"520 3rd St, Suite 305","address2":"","zip_code":"94107","city":"San Francisco","state_code":"CA","country_code":"USA","location":{"type":"Point","coordinates":[-122.395257,37.780883]}},{"name":"Buxfer","category_code":"web","description":"","address1":"","address2":"","zip_code":"","city":"Mountain View","state_code":"CA","country_code":"USA","location":{"type":"Point","coordinates":[-122.073003,37.400465]}},{"name":"Wikia","category_code":"web","description":"","address1":"500 3rd St Ste 405","address2":"","zip_code":"94017-1889","city":"San Francisco","state_code":"CA","country_code":"USA","location":null},{"name":"boo-box","category_code":"advertising","description":"boo-land","address1":"Av. Faria Lima, 2631","address2":"Pinheiros","zip_code":"","city":"Sao Paulo","state_code":null,"country_code":"BRA","location":{"type":"Point","coordinates":[-46.679287,-23.558584]}},{"name":"Retrevo","category_code":"web","description":"","address1":"440 N. Wolfe Rd.","address2":"","zip_code":"","city":"Sunnyvale","state_code":"CA","country_code":"USA","location":{"type":"Point","coordinates":[-122.034021,37.368594]}},{"name":"Tangler","category_code":"web","description":null,"address1":"800 W. El Camino Real","address2":"Suite 180","zip_code":"94040","city":"Mountain View","state_code":"CA","country_code":"USA","location":{"type":"Point","coordinates":[-122.084171,37.386665]}},{"name":"TextPayMe","category_code":"web","description":null,"address1":null,"address2":null,"zip_code":null,"city":"Redmond","state_code":"WA","country_code":"USA","location":{"type":"Point","coordinates":[-122.115633,47.672229]}},{"name":"BillMonk","category_code":"web","description":null,"address1":null,"address2":null,"zip_code":null,"city":"Seattle","state_code":"WA","country_code":"USA","location":{"type":"Point","coordinates":[-122.347533,47.620716]}},{"name":"Nimbuzz","category_code":"mobile","description":"Nimbuzz Netherlands","address1":"301 Rivium Boulevard","address2":"","zip_code":"2909 LK","city":"Capelle a\/d IJssel","state_code":null,"country_code":"NLD","location":{"type":"Point","coordinates":[4.5464658,51.9122575]}},{"name":"Nimbuzz","category_code":"mobile","description":"Nimbuzz India","address1":"5th Floor, Vatika Business Park","address2":"Sohna Road, Sector 49 Gurgaon","zip_code":"","city":"Gurgaon","state_code":null,"country_code":"IND","location":null},{"name":"TalkPlus","category_code":"web","description":null,"address1":"1825 South Grant Street","address2":"Suite 400","zip_code":"94402","city":"San Mateo","state_code":"CA","country_code":"USA","location":{"type":"Point","coordinates":[-122.300246,37.553743]}},{"name":"obopay","category_code":"mobile","description":"","address1":"275 Shoreline Drive","address2":"Suite 400","zip_code":"","city":"Redwood City","state_code":"CA","country_code":"USA","location":{"type":"Point","coordinates":[-122.258037,37.524729]}},{"name":"MeeMix","category_code":"web","description":null,"address1":"","address2":"","zip_code":"","city":"Tel Aviv","state_code":null,"country_code":"ISR","location":{"type":"Point","coordinates":[34.7595,32.0554]}},{"name":"WebbAlert","category_code":"games_video","description":null,"address1":null,"address2":null,"zip_code":null,"city":"Los Angeles","state_code":"CA","country_code":"USA","location":{"type":"Point","coordinates":[-118.243425,34.052187]}},{"name":"Hightail","category_code":"network_hosting","description":"","address1":"1919 S Bascom Ave","address2":"","zip_code":"95008","city":"Campbell","state_code":"CA","country_code":"USA","location":{"type":"Point","coordinates":[-121.935688,37.288974]}},{"name":"Vudu","category_code":"hardware","description":"HQ","address1":"2890 Bower Avenue","address2":"","zip_code":"95051","city":"Santa Clara","state_code":"CA","country_code":"USA","location":null},{"name":"WallStrip","category_code":"games_video","description":null,"address1":null,"address2":null,"zip_code":null,"city":null,"state_code":null,"country_code":"USA","location":{"type":"Point","coordinates":[-95.712891,37.09024]}},{"name":"Brightcove","category_code":"enterprise","description":"Headquarters","address1":"One Cambridge Center","address2":"","zip_code":"02142","city":"Cambridge","state_code":"MA","country_code":"USA","location":{"type":"Point","coordinates":[-71.086596,42.362993]}},{"name":"Brightcove","category_code":"enterprise","description":"Japan Headquarters","address1":"Ebisu LITE Bldg. 2F","address2":"3-1-19 Ebisuminami, Shibuya-ku","zip_code":"150-0022","city":"Tokyo","state_code":null,"country_code":"JPN","location":null},{"name":"Brightcove","category_code":"enterprise","description":"","address1":"708 Third Ave","address2":"6th Floor, Suite 30","zip_code":"10017","city":"New York","state_code":"NY","country_code":"USA","location":null},{"name":"Brightcove","category_code":"enterprise","description":"","address1":"200 West Mercer Street","address2":"Suite 204","zip_code":"98119","city":"Seattle","state_code":"WA","country_code":"USA","location":null},{"name":"Brightcove","category_code":"enterprise","description":"","address1":"53 Chandos Place","address2":"Covent Garden","zip_code":"WC2N 4HS","city":"London","state_code":null,"country_code":"GBR","location":null},{"name":"Brightcove","category_code":"enterprise","description":"","address1":"Stadthausbr\u00c3\u00bccke","address2":"","zip_code":"D-22355","city":"Hamburg","state_code":null,"country_code":"DEU","location":null},{"name":"Brightcove","category_code":"enterprise","description":"","address1":"Avenida Diagonal 640","address2":"planta 6","zip_code":"08017","city":"Barcelona","state_code":null,"country_code":"ESP","location":null},{"name":"Rocketboom","category_code":"news","description":null,"address1":"PO Box 804","address2":"Planetarium Station","zip_code":"10024","city":"New York","state_code":"NY","country_code":"USA","location":{"type":"Point","coordinates":[-73.97785,40.797364]}},{"name":"PermissionTV","category_code":"games_video","description":null,"address1":"1601 Trapelo Road, Suite 168","address2":null,"zip_code":"02451","city":"Waltham","state_code":"MA","country_code":"USA","location":{"type":"Point","coordinates":[-71.258466,42.417268]}},{"name":"Kaneva","category_code":"web","description":null,"address1":"5901-C Peachtree Dunwoody Road","address2":null,"zip_code":"30328","city":"Atlanta","state_code":"GA","country_code":"USA","location":{"type":"Point","coordinates":[-84.350663,33.916374]}},{"name":"IMVU","category_code":"web","description":"","address1":"200 West Evelyn Ave.","address2":"Suite 220","zip_code":"94041","city":"Mountain View","state_code":"CA","country_code":"USA","location":{"type":"Point","coordinates":[-122.0727749,37.3927975]}},{"name":"madKast","category_code":"web","description":null,"address1":null,"address2":null,"zip_code":null,"city":"Boulder","state_code":"CO","country_code":"USA","location":{"type":"Point","coordinates":[-105.276843,40.010492]}},{"name":"Outdoorzy","category_code":"network_hosting","description":null,"address1":"","address2":"","zip_code":"42101","city":"Bowling Green","state_code":null,"country_code":"USA","location":{"type":"Point","coordinates":[-86.463026,37.018244]}},{"name":"Webkinz","category_code":"web","description":null,"address1":"One Pearce Road","address2":"","zip_code":"L4L 3T2","city":"Woodbridge","state_code":null,"country_code":"CAN","location":{"type":"Point","coordinates":[-79.549577,43.76969]}},{"name":"Zwinky","category_code":"web","description":"","address1":"One North Lexington, 9th Floor","address2":"White Plains","zip_code":"NY, 10601","city":"New York","state_code":"NY","country_code":"USA","location":null},{"name":"Scrybe","category_code":"enterprise","description":"","address1":"181 Fremont Street","address2":"","zip_code":"94105","city":"San Francisco","state_code":"CA","country_code":"USA","location":{"type":"Point","coordinates":[-74.761403,40.270666]}},{"name":"Mokitown","category_code":"web","description":null,"address1":null,"address2":null,"zip_code":null,"city":null,"state_code":null,"country_code":"USA","location":{"type":"Point","coordinates":[-95.712891,37.09024]}},{"name":"Aniboom","category_code":"games_video","description":null,"address1":null,"address2":null,"zip_code":null,"city":null,"state_code":null,"country_code":"ISR","location":{"type":"Point","coordinates":[34.851612,31.046051]}},{"name":"Millsberry","category_code":"web","description":"blake","address1":"1457","address2":"1327","zip_code":"3086448","city":"mem","state_code":"TN","country_code":"USA","location":{"type":"Point","coordinates":[-95.712891,37.09024]}},{"name":"KnockaTV","category_code":"games_video","description":null,"address1":"","address2":"","zip_code":"","city":"","state_code":null,"country_code":"ISR","location":{"type":"Point","coordinates":[34.851612,31.046051]}},{"name":"Pickle","category_code":"web","description":null,"address1":"1916 Wilson Blvd","address2":"Suite 208","zip_code":"22201","city":"Arlington","state_code":"VA","country_code":"USA","location":{"type":"Point","coordinates":[-77.081732,38.892371]}},{"name":"GreatCall","category_code":"mobile","description":"","address1":"12680 High Bluff Drive","address2":"","zip_code":"92130","city":"San Diego","state_code":"CA","country_code":"USA","location":{"type":"Point","coordinates":[-117.265191,32.964294]}},{"name":"Nirvanix","category_code":"enterprise","description":"HQ","address1":"4445 Eastgate Mall","address2":"Ste. 405","zip_code":"92121","city":"San Diego","state_code":"CA","country_code":"USA","location":{"type":"Point","coordinates":[-117.210595,32.877656]}},{"name":"HireAHelper","category_code":"web","description":"Headquarters","address1":"4095 Oceanside Blvd","address2":"Suite K","zip_code":"92056","city":"Oceanside","state_code":"CA","country_code":"USA","location":null},{"name":"Viagogo","category_code":"ecommerce","description":"","address1":"77 Battery St Fl 4","address2":"","zip_code":"94111-5540","city":"San Francisco","state_code":"CA","country_code":"USA","location":{"type":"Point","coordinates":[-0.126236,51.500152]}},{"name":"Echo","category_code":"enterprise","description":"headquarter","address1":"1765 Crockett Lane","address2":"San Francisco Bay Area","zip_code":"94010","city":"San francisco","state_code":"CA","country_code":"USA","location":{"type":"Point","coordinates":[-122.1879633,38.0729365]}},{"name":"Revver","category_code":"games_video","description":null,"address1":"","address2":"","zip_code":"","city":"Los Angeles","state_code":"CA","country_code":"USA","location":{"type":"Point","coordinates":[-118.243425,34.052187]}},{"name":"MindTouch","category_code":"enterprise","description":"","address1":"401 West A Street","address2":"Suite 250","zip_code":"92101","city":"San Diego","state_code":"CA","country_code":"USA","location":{"type":"Point","coordinates":[-117.167831,32.720656]}},{"name":"Sportingo","category_code":"web","description":null,"address1":null,"address2":null,"zip_code":"46733","city":null,"state_code":null,"country_code":"ISR","location":{"type":"Point","coordinates":[-96.76492,17.08881]}},{"name":"Flock","category_code":"web","description":"","address1":"644 Menlo Ave.","address2":"Suite 203","zip_code":"94025","city":"Menlo Park","state_code":"CA","country_code":"USA","location":{"type":"Point","coordinates":[-122.228843,37.491356]}},{"name":"Splashup","category_code":"web","description":null,"address1":"","address2":"","zip_code":"","city":"","state_code":null,"country_code":"USA","location":{"type":"Point","coordinates":[-95.712891,37.09024]}},{"name":"Curverider","category_code":"network_hosting","description":"","address1":"International House","address2":"1-6 Yarmouth Place","zip_code":"W1J 7BU","city":"London","state_code":null,"country_code":"GBR","location":{"type":"Point","coordinates":[-1.197534,51.785428]}},{"name":"SomethingSimpler","category_code":"search","description":null,"address1":"","address2":"","zip_code":"","city":"Vancouver","state_code":null,"country_code":"CAN","location":{"type":"Point","coordinates":[-123.138565,49.263588]}},{"name":"ChaCha","category_code":"advertising","description":"Headquarters","address1":"14550 Clay Terrace Blvd.","address2":"Suite 130","zip_code":"46032","city":"Carmel","state_code":"IN","country_code":"USA","location":{"type":"Point","coordinates":[-86.130347,39.998641]}},{"name":"ChaCha","category_code":"advertising","description":"West Coast Office","address1":"156 2nd St","address2":"","zip_code":"94105","city":"San Francisco","state_code":"CA","country_code":"USA","location":null},{"name":"TimeBridge","category_code":"web","description":"MerchantCircle","address1":"800 W. El Camino Real","address2":"Suite 330","zip_code":"94040","city":"Mountain View","state_code":"CA","country_code":"USA","location":null},{"name":"Sampa","category_code":"web","description":"","address1":"15359 NE 90th St","address2":"","zip_code":"98052","city":"Redmond","state_code":"WA","country_code":"USA","location":{"type":"Point","coordinates":[-122.135521,47.682233]}},{"name":"Jimdo","category_code":"web","description":"Germany","address1":"Stresemannstrasse 375","address2":"","zip_code":"22761","city":"Hamburg","state_code":null,"country_code":"DEU","location":null},{"name":"Jimdo","category_code":"web","description":"USA","address1":"548 Market St","address2":"","zip_code":"94104","city":"San Francisco","state_code":"CA","country_code":"USA","location":null},{"name":"Jimdo","category_code":"web","description":"Japan","address1":"Sumitomo Fudousan Kojimachi Building No. 3, 3-6 Kojimachi, Chiyoda-ku","address2":"","zip_code":"102-0083","city":"Tokyo","state_code":null,"country_code":"JPN","location":null},{"name":"Jimdo","category_code":"web","description":"China","address1":"Room 2026, No.1438 Shaanxi Road (North)\/ Changshou Road","address2":"","zip_code":"200060","city":"Shanghai","state_code":null,"country_code":"CHN","location":null},{"name":"TokBox","category_code":"messaging","description":"Corporate Headquarters","address1":"501 Second Street","address2":"Suite 310","zip_code":"94107","city":"San Francisco","state_code":"CA","country_code":"USA","location":{"type":"Point","coordinates":[-122.39071,37.779507]}},{"name":"TokBox","category_code":"messaging","description":"Sydney Office","address1":"Fishburners","address2":"608 Harris St.","zip_code":"2007","city":"Ultimo","state_code":null,"country_code":"AUS","location":null},{"name":"TokBox","category_code":"messaging","description":"New York Office","address1":"447 Broadway","address2":"","zip_code":"10013","city":"New York","state_code":"NY","country_code":"USA","location":null},{"name":"TokBox","category_code":"messaging","description":"Barcelona Office","address1":"D00 BUILDING - P14-L11","address2":"PL.Ernest Lluch i Martin, 5","zip_code":"","city":"Barcelona, 08019","state_code":null,"country_code":"ESP","location":null},{"name":"Yola","category_code":"web","description":"Yola San Francisco","address1":"201 Mission Street","address2":"Suite 2250","zip_code":"94105","city":"San Francisco","state_code":"CA","country_code":"USA","location":{"type":"Point","coordinates":[-122.3954751,37.7911148]}},{"name":"Yola","category_code":"web","description":"Cape Town Office","address1":"35 Hope Street","address2":"3rd Floor","zip_code":"8000","city":"Cape Town","state_code":null,"country_code":"ZAF","location":null},{"name":"Weebly","category_code":"web","description":"","address1":"564 Pacific Ave","address2":"","zip_code":"94133","city":"San Francisco","state_code":"CA","country_code":"USA","location":{"type":"Point","coordinates":[-122.400729,37.795555]}},{"name":"Dropbox","category_code":"software","description":"Headquarters","address1":"","address2":"185 Berry St 4th Floor","zip_code":"94107","city":"San Francisco","state_code":"CA","country_code":"USA","location":{"type":"Point","coordinates":[-122.4084994,37.7909427]}},{"name":"Dropbox","category_code":"software","description":"EMEA HQ","address1":"Fitzwilliam Hall","address2":"","zip_code":"","city":"Dublin","state_code":null,"country_code":"IRL","location":null},{"name":"Kongregate","category_code":"games_video","description":"","address1":"2 Shaw Alley","address2":"4th Floor","zip_code":"94105","city":"San Francisco","state_code":"CA","country_code":"USA","location":{"type":"Point","coordinates":[-122.401245,37.786942]}},{"name":"DanceJam","category_code":"games_video","description":"","address1":"965 Mission Street","address2":"Suite 730","zip_code":"94103","city":"San Francisco","state_code":"CA","country_code":"USA","location":{"type":"Point","coordinates":[-122.407959,37.781557]}},{"name":"Socialthing","category_code":"network_hosting","description":"HQ","address1":"1050 Walnut Street","address2":"Suite 101","zip_code":"80302","city":"Boulder","state_code":"CO","country_code":"USA","location":{"type":"Point","coordinates":[-105.2762236,40.0186731]}},{"name":"SlapVid","category_code":"games_video","description":"","address1":"407 S. Craig St. #105A","address2":"","zip_code":"15213","city":"Pittsburgh","state_code":"PA","country_code":"USA","location":{"type":"Point","coordinates":[-79.948563,40.445009]}},{"name":"Bountii","category_code":"ecommerce","description":"","address1":"","address2":"","zip_code":"","city":"Palo Alto","state_code":"CA","country_code":"USA","location":{"type":"Point","coordinates":[-122.159928,37.437328]}},{"name":"EventVue","category_code":"public_relations","description":"","address1":"1035 Pearl Street","address2":"","zip_code":"80302","city":"Boulder","state_code":"CO","country_code":"USA","location":{"type":"Point","coordinates":[-105.276843,40.010492]}},{"name":"BitTorrent","category_code":"web","description":"","address1":"303 2nd Street","address2":"Suite S600","zip_code":"94107","city":"San Francisco","state_code":"CA","country_code":"USA","location":{"type":"Point","coordinates":[-122.394668,37.790998]}},{"name":"Inneractive","category_code":"advertising","description":"","address1":"300 S Ellsworth Ave","address2":"","zip_code":"94401-4046","city":"San Mateo","state_code":"CA","country_code":"USA","location":{"type":"Point","coordinates":[-122.3229235,37.5646055]}},{"name":"Filtrbox","category_code":"web","description":"HQ","address1":"325 Lytton Ave","address2":"","zip_code":"94301","city":"Palo Alto","state_code":"CA","country_code":"USA","location":{"type":"Point","coordinates":[-105.276843,40.010492]}},{"name":"Brightkite","category_code":"social","description":"","address1":"270 East Lane","address2":"","zip_code":"94010","city":"Burlingame","state_code":"CA","country_code":"USA","location":{"type":"Point","coordinates":[-104.982256,39.762314]}},{"name":"Cloudant","category_code":"enterprise","description":"","address1":"129 South Street","address2":"","zip_code":"02111","city":"Boston","state_code":"MA","country_code":"USA","location":{"type":"Point","coordinates":[-71.05781,42.35892]}},{"name":"PartnerUp","category_code":"web","description":"Corporate Headquarters","address1":"10050 Crosstown Circle - First Floor","address2":"","zip_code":"55344","city":"Minneapolis","state_code":"MN","country_code":"USA","location":null},{"name":"Digitalsmiths","category_code":"software","description":"Headquarters","address1":"320 Blackwell Street","address2":"Suite 200","zip_code":"27701","city":"Durham","state_code":"NC","country_code":"USA","location":null},{"name":"Kiva","category_code":"finance","description":null,"address1":"3180 18th Street, Suite 201","address2":null,"zip_code":"94110","city":"San Francisco","state_code":"CA","country_code":"USA","location":{"type":"Point","coordinates":[-122.4147,37.762125]}},{"name":"KIT digital","category_code":"enterprise","description":"New York Office","address1":"26 W 17th Street","address2":"","zip_code":"10011","city":"New York","state_code":"NY","country_code":"USA","location":{"type":"Point","coordinates":[-73.971655,40.751816]}},{"name":"KIT digital","category_code":"enterprise","description":"Corporate HQ in Prague","address1":"Slezska 113, 130 00","address2":"","zip_code":"","city":"Prague","state_code":null,"country_code":"CZE","location":null},{"name":"KIT digital","category_code":"enterprise","description":"London Office","address1":"3 More London, Riverside","address2":"","zip_code":"SE1 2AQ","city":"London","state_code":null,"country_code":"GBR","location":null},{"name":"KIT digital","category_code":"enterprise","description":"Melbourne Office","address1":"Upstairs, 116-122 Chapel Street","address2":"","zip_code":"","city":"Windsor, Victoria","state_code":null,"country_code":"AUS","location":null},{"name":"KIT digital","category_code":"enterprise","description":"Stockholm Office","address1":"Drottninggatan 92-94","address2":"","zip_code":"SE-111 36","city":"Stockholm","state_code":null,"country_code":"SWE","location":{"type":"Point","coordinates":[18.0580765,59.3369746]}},{"name":"KIT digital","category_code":"enterprise","description":"Buenos Aires Office","address1":"Tacuar\u00c3\u00ad 237, Piso 7","address2":"","zip_code":"C1024AAF","city":"Ciudad de Buenos Aires","state_code":null,"country_code":"ARG","location":null},{"name":"KIT digital","category_code":"enterprise","description":"Cairo Office","address1":"1121 Corniche El Nile St.","address2":"","zip_code":"11221","city":"Maspero, Cairo","state_code":null,"country_code":"EGY","location":null},{"name":"KIT digital","category_code":"enterprise","description":"Singapore Office","address1":"10 Anson Road, #32-11 International Plaza","address2":"","zip_code":"079903","city":"Singapore","state_code":null,"country_code":"SGP","location":null},{"name":"KIT digital","category_code":"enterprise","description":"Toronto Office","address1":"2595 Skymark Avenue","address2":"","zip_code":"L4W 4L5","city":"Mississauga, Ontario","state_code":null,"country_code":"CAN","location":{"type":"Point","coordinates":[-79.5983626,43.6587599]}},{"name":"KIT digital","category_code":"enterprise","description":"Dubai Office","address1":"Business Central Towers A Suite 902","address2":"Dubai Media City","zip_code":"","city":"Dubai","state_code":null,"country_code":"ARE","location":null},{"name":"Zivity","category_code":"network_hosting","description":"","address1":"329 Bryant Street","address2":"Suite 2D","zip_code":"94107","city":"San Francisco","state_code":"CA","country_code":"USA","location":{"type":"Point","coordinates":[-122.397593,37.789488]}},{"name":"Goowy","category_code":"web","description":null,"address1":"121 Broadway","address2":"Suite 233","zip_code":"92101","city":"San Diego","state_code":"CA","country_code":"USA","location":{"type":"Point","coordinates":[-117.163353,32.71537]}},{"name":"Zopa","category_code":"finance","description":"","address1":"40-44 Newman Street","address2":"","zip_code":"W1T 1QD","city":"London","state_code":null,"country_code":"GBR","location":{"type":"Point","coordinates":[-0.139947,51.517904]}},{"name":"BlueLithium","category_code":"advertising","description":"","address1":"3055 Olin Avenue, Suite 2200","address2":"","zip_code":"95128","city":"San Jose","state_code":"CA","country_code":"USA","location":{"type":"Point","coordinates":[-121.948399,37.32052]}},{"name":"InviteShare","category_code":"public_relations","description":null,"address1":null,"address2":null,"zip_code":"94027","city":"Atherton","state_code":"CA","country_code":"USA","location":{"type":"Point","coordinates":[-122.205016,37.450128]}},{"name":"Doostang","category_code":"web","description":"","address1":"410 Cambridge Ave","address2":"2nd Floor","zip_code":"94306","city":"Palo Alto","state_code":"CA","country_code":"USA","location":{"type":"Point","coordinates":[-122.145783,37.427235]}},{"name":"DotBlu","category_code":"web","description":"","address1":"360 Ritch St","address2":"Ste 205","zip_code":"94107-1747","city":"San Francisco","state_code":"CA","country_code":"USA","location":{"type":"Point","coordinates":[-95.712891,37.09024]}},{"name":"Shock Treatment Management","category_code":"web","description":null,"address1":"1601 2nd Avenue, Suite #1080","address2":null,"zip_code":"98101","city":"Seattle","state_code":"WA","country_code":"USA","location":{"type":"Point","coordinates":[-122.339859,47.610332]}},{"name":"Vlingo","category_code":"mobile","description":null,"address1":"17 Dunster Street","address2":null,"zip_code":"02138","city":"Cambridge","state_code":"MA","country_code":"USA","location":{"type":"Point","coordinates":[-71.118999,42.372912]}},{"name":"Mevio","category_code":"games_video","description":"","address1":"577 2nd St Suite 203","address2":"","zip_code":"94107","city":"San Francisco","state_code":"CA","country_code":"USA","location":{"type":"Point","coordinates":[-122.392142,37.782263]}},{"name":"Docstoc","category_code":"web","description":"","address1":"409 S Santa Monica Blvd","address2":"Suite 2A","zip_code":"90401","city":"Santa Monica","state_code":"CA","country_code":"USA","location":{"type":"Point","coordinates":[-118.495025,34.018275]}},{"name":"Covestor","category_code":"finance","description":"Boston","address1":"175 Federal Street, Suite 825","address2":"","zip_code":"02110","city":"Boston","state_code":"MA","country_code":"USA","location":null},{"name":"Covestor","category_code":"finance","description":"London","address1":"1 Duchess Street","address2":"","zip_code":"W1W 6AN","city":"London","state_code":null,"country_code":"GBR","location":{"type":"Point","coordinates":[-0.1433689,51.5194201]}},{"name":"NewsGator","category_code":"enterprise","description":"NewsGator US Headquarters","address1":"950 17th Street, Suite 2500","address2":"","zip_code":"80202","city":"Denver","state_code":"CO","country_code":"USA","location":{"type":"Point","coordinates":[-104.988123,39.755092]}},{"name":"sezmi","category_code":"games_video","description":"","address1":"1301 Shoreway Road","address2":"Suite 310","zip_code":"94002","city":"Belmont","state_code":"CA","country_code":"USA","location":{"type":"Point","coordinates":[-122.265869,37.524422]}},{"name":"sezmi","category_code":"games_video","description":"","address1":"2951 28th Street","address2":"Suite 2040","zip_code":"90405","city":"Santa Monica","state_code":"CA","country_code":"USA","location":{"type":"Point","coordinates":[-118.453218,34.017373]}},{"name":"sezmi","category_code":"games_video","description":"","address1":"1000 NW 65th Street","address2":"Suite 300","zip_code":"33309","city":"Fort Lauderdale","state_code":"FL","country_code":"USA","location":{"type":"Point","coordinates":[-80.157296,26.207024]}},{"name":"TechCrunch","category_code":"news","description":"","address1":"410 Townsend St","address2":"","zip_code":"94107-1537","city":"San Francisco","state_code":"CA","country_code":"USA","location":{"type":"Point","coordinates":[-122.1490582,37.4459832]}},{"name":"Exabre","category_code":"web","description":"Headquarters","address1":"The Filter","address2":"17 Gay Street","zip_code":"BA1 2PH","city":"Bath, Somerset","state_code":null,"country_code":"GBR","location":null},{"name":"Techstars","category_code":"finance","description":"HQ","address1":"","address2":"","zip_code":"","city":"Boulder","state_code":"CO","country_code":"USA","location":{"type":"Point","coordinates":[-105.276843,40.010492]}},{"name":"Yeigo","category_code":"mobile","description":null,"address1":"Longkloof Studio's","address2":null,"zip_code":"8800","city":"Cape Town","state_code":null,"country_code":"ZAF","location":null},{"name":"Greystripe","category_code":"advertising","description":"Greystripe","address1":"160 Spear Street Fl 14","address2":"","zip_code":"94105","city":"San Francisco","state_code":"CA","country_code":"USA","location":{"type":"Point","coordinates":[-122.39323,37.710677]}},{"name":"ReachLocal","category_code":"advertising","description":"Europe Headquarters","address1":"2 Queen Caroline St.","address2":"Hammersmith","zip_code":"","city":"London","state_code":null,"country_code":"GBR","location":{"type":"Point","coordinates":[-72.188584,41.53155]}},{"name":"ReachLocal","category_code":"advertising","description":"Canada Headquarters","address1":"1090 Don Mills Road","address2":"Suite 403B","zip_code":"M3C 3R6","city":"Toronto","state_code":null,"country_code":"CAN","location":{"type":"Point","coordinates":[-79.338246,43.7192415]}},{"name":"ReachLocal","category_code":"advertising","description":"World\/US Headquarters","address1":"21700 Oxnard St.","address2":"Ste. 1600","zip_code":"91367","city":"Woodland Hills","state_code":"CA","country_code":"USA","location":null},{"name":"ReachLocal","category_code":"advertising","description":"Australia Headquarters","address1":"3 Richardson Place, Binary Centre","address2":"Building 1, Level 5, Ste. 2","zip_code":"NSW 2113","city":"North Ryde","state_code":null,"country_code":"AUS","location":null},{"name":"ReachLocal","category_code":"advertising","description":"Asia Headquarters","address1":"Ark Yagi Hills 10F, 1-8-7","address2":"Roppongim Minato-ku","zip_code":"106-0032","city":"Tokyo","state_code":null,"country_code":"JPN","location":null},{"name":"TubeMogul","category_code":"advertising","description":"Company Headquarters","address1":"1250 53rd St.","address2":"Suite 1","zip_code":"94608","city":"Emeryville","state_code":"CA","country_code":"USA","location":{"type":"Point","coordinates":[-122.286493,37.836957]}},{"name":"Trulia","category_code":"search","description":"World HQ","address1":"116 New Montgomery","address2":"","zip_code":"94501","city":"San Francisco","state_code":"CA","country_code":"USA","location":{"type":"Point","coordinates":[-122.406676,37.766909]}},{"name":"SpiralFrog","category_code":"games_video","description":null,"address1":"95 Morton Street","address2":"Ground Floor","zip_code":"10014","city":"New York","state_code":"NY","country_code":"USA","location":{"type":"Point","coordinates":[-95.712891,37.09024]}},{"name":"LimeLife","category_code":"news","description":null,"address1":"","address2":"","zip_code":"","city":"Menlo Park","state_code":"CA","country_code":"USA","location":{"type":"Point","coordinates":[-122.169472,37.48413]}},{"name":"Seedcamp","category_code":"finance","description":"","address1":"8 Clifford Street","address2":"","zip_code":"W1S 2LQ","city":"London","state_code":null,"country_code":"GBR","location":{"type":"Point","coordinates":[-0.1418973,51.5108803]}},{"name":"LocaModa","category_code":"advertising","description":"HQ","address1":"One Broadway","address2":"14th Fl","zip_code":"02142","city":"Cambridge","state_code":"MA","country_code":"USA","location":{"type":"Point","coordinates":[-71.104329,42.358822]}},{"name":"YouBeQB","category_code":"games_video","description":null,"address1":null,"address2":null,"zip_code":null,"city":"Bellevue","state_code":"WA","country_code":"USA","location":{"type":"Point","coordinates":[-122.151158,47.597965]}},{"name":"MocoSpace","category_code":"games_video","description":"","address1":"","address2":"","zip_code":"02111","city":"Boston","state_code":"MA","country_code":"USA","location":{"type":"Point","coordinates":[-71.058768,42.350274]}},{"name":"RampedMedia","category_code":"web","description":null,"address1":"1225 Mackay Place","address2":null,"zip_code":"63104","city":"Saint Louis","state_code":"MO","country_code":"USA","location":{"type":"Point","coordinates":[-90.216499,38.618874]}},{"name":"Adknowledge","category_code":"advertising","description":"World Headquarters","address1":"4600 Madison Ave., 10th Floor","address2":"","zip_code":"64112","city":"Kansas City","state_code":"MO","country_code":"USA","location":{"type":"Point","coordinates":[-94.597896,39.044694]}},{"name":"Adknowledge","category_code":"advertising","description":"Adknowledge New York","address1":"7 Penn Plaza","address2":"370 Seventh Ave., 17th Fl.","zip_code":"10001","city":"New York","state_code":"NY","country_code":"USA","location":{"type":"Point","coordinates":[-73.992463,40.748901]}},{"name":"Adknowledge","category_code":"advertising","description":"Adknowledge San Francisco","address1":"33 New Montgomery St.","address2":"Suite 220","zip_code":"94105","city":"San Francisco","state_code":"CA","country_code":"USA","location":{"type":"Point","coordinates":[-122.401406,37.78866]}},{"name":"Adknowledge","category_code":"advertising","description":"Adknowledge Fort Myers","address1":"5220 Summerlin Commons Blvd.","address2":"Suite 501","zip_code":"33907","city":"Fort Myers","state_code":"FL","country_code":"USA","location":{"type":"Point","coordinates":[-81.879069,26.580095]}},{"name":"Adknowledge","category_code":"advertising","description":"Adknowledge Toronto","address1":"129 Spadina Ave.","address2":"#400","zip_code":"M5V 2L3","city":"Toronto","state_code":null,"country_code":"CAN","location":{"type":"Point","coordinates":[-79.3953743,43.6474554]}},{"name":"Adknowledge","category_code":"advertising","description":"Adknowledge UK","address1":"4th Floor Stanford House","address2":"27a Floral St.","zip_code":"WC2E 9EZ","city":"Covent Garden, London","state_code":null,"country_code":"GBR","location":{"type":"Point","coordinates":[-0.1229212,51.5114403]}},{"name":"Adknowledge","category_code":"advertising","description":"Adknowledge Germany","address1":"Adams-Lehmann-Str. 56, 80797","address2":"","zip_code":"","city":"Munich","state_code":null,"country_code":"DEU","location":{"type":"Point","coordinates":[11.5582609,48.1635092]}},{"name":"Adknowledge","category_code":"advertising","description":"Adknowledge France","address1":"161, rue du Faubourg Saint-Antoine","address2":"","zip_code":"75011","city":"Paris","state_code":null,"country_code":"FRA","location":{"type":"Point","coordinates":[2.3797825,48.8506065]}},{"name":"Adknowledge","category_code":"advertising","description":"Adknowledge China","address1":"3\/F Silver Court","address2":"No. 85 Tao Yuan Lu","zip_code":"200021","city":"Shanghai","state_code":null,"country_code":"CHN","location":{"type":"Point","coordinates":[121.4770384,31.222622]}},{"name":"Yap","category_code":"messaging","description":"","address1":"940 Market Street","address2":"Suite 220","zip_code":"29708","city":"Fort Mill","state_code":"SC","country_code":"USA","location":{"type":"Point","coordinates":[-80.856178,35.22806]}},{"name":"Minglebox","category_code":"web","description":null,"address1":null,"address2":null,"zip_code":null,"city":"Bangalore","state_code":null,"country_code":"IND","location":{"type":"Point","coordinates":[77.594376,12.971606]}},{"name":"TestFreaks","category_code":"ecommerce","description":"Main office","address1":"Osterlanggatan 2","address2":"","zip_code":"","city":"Stockholm","state_code":null,"country_code":"SWE","location":{"type":"Point","coordinates":[18.0571198,59.3339908]}},{"name":"BlogSigs","category_code":"web","description":null,"address1":null,"address2":null,"zip_code":null,"city":null,"state_code":null,"country_code":"USA","location":{"type":"Point","coordinates":[-95.712891,37.09024]}},{"name":"Tizra","category_code":"enterprise","description":null,"address1":"9 Catalpa Rd.","address2":"","zip_code":"02906","city":"Providence","state_code":"RI","country_code":"USA","location":{"type":"Point","coordinates":[-71.399771,41.841713]}},{"name":"Videojug","category_code":"news","description":"London Office","address1":"1 Holford Yard","address2":"Cruikshank St","zip_code":"WC1X 9HD","city":"London","state_code":null,"country_code":"GBR","location":null},{"name":"Quattro Wireless","category_code":"advertising","description":null,"address1":"260 Charles St","address2":"","zip_code":"02453","city":"Waltham","state_code":"MA","country_code":"USA","location":{"type":"Point","coordinates":[-71.248472,42.3729]}},{"name":"BBE","category_code":"advertising","description":"","address1":"245 Fifth Avenue","address2":"21st Floor","zip_code":"10016","city":"New York","state_code":"NY","country_code":"USA","location":{"type":"Point","coordinates":[-73.9874008,40.7445343]}},{"name":"Thumbplay","category_code":"music","description":null,"address1":"599 Broadway","address2":"8th Floor","zip_code":"10012","city":"New York","state_code":"NY","country_code":"USA","location":{"type":"Point","coordinates":[-73.997395,40.725435]}},{"name":"SnapTell","category_code":"software","description":"","address1":"2741 Middlefield Road","address2":"Suite 200","zip_code":"94306","city":"Palo Alto","state_code":"CA","country_code":"USA","location":{"type":"Point","coordinates":[-122.128772,37.433414]}},{"name":"Wonga","category_code":"web","description":"","address1":"88 Crawford Street","address2":"","zip_code":"W1H 2EJ","city":"London","state_code":null,"country_code":"GBR","location":{"type":"Point","coordinates":[-0.1626103,51.5192042]}},{"name":"MicroPlace","category_code":"web","description":"","address1":"","address2":"","zip_code":"","city":"San Francisco","state_code":"CA","country_code":"USA","location":{"type":"Point","coordinates":[-122.419204,37.775196]}},{"name":"Contrastream","category_code":"games_video","description":null,"address1":"62 Sexton Cres","address2":null,"zip_code":"M2H 2L5","city":"Toronto","state_code":null,"country_code":"CAN","location":{"type":"Point","coordinates":[-79.348037,43.799511]}},{"name":"EyeJot","category_code":"web","description":"","address1":"315 5th Ave South","address2":"Suite 800","zip_code":"98104","city":"Seattle","state_code":"WA","country_code":"USA","location":{"type":"Point","coordinates":[-122.3276962,47.5999337]}},{"name":"Collagr","category_code":"web","description":null,"address1":"12310 Reva St.","address2":null,"zip_code":"90703","city":"Cerritos","state_code":"CA","country_code":"AFG","location":null},{"name":"Finetune","category_code":"games_video","description":"c\/o NextRadio Solutions","address1":"255 Washington Street ,","address2":"Two Newton Place Suite 150,","zip_code":"0245902458","city":"Newton","state_code":"MA","country_code":"USA","location":null},{"name":"Spiceworks","category_code":"hardware","description":"World Headquarters","address1":"7300 FM 2222, Bldg 3","address2":"Suite 100","zip_code":"78730","city":"Austin","state_code":"TX","country_code":"USA","location":{"type":"Point","coordinates":[-97.753739,30.386601]}},{"name":"CrowdSpirit","category_code":"web","description":null,"address1":"46 Rue de la Republique","address2":null,"zip_code":"38360","city":"Sassenage","state_code":null,"country_code":"FRA","location":{"type":"Point","coordinates":[5.659066,45.206889]}},{"name":"SayNow","category_code":"mobile","description":"Headquarters","address1":"555 University Ave","address2":"","zip_code":"94301","city":"Palo Alto","state_code":"CA","country_code":"USA","location":{"type":"Point","coordinates":[-122.143915,37.42746]}},{"name":"MyHeritage","category_code":"social","description":"","address1":"","address2":"","zip_code":"","city":"Or Yehuda","state_code":null,"country_code":"ISR","location":{"type":"Point","coordinates":[34.856173,32.029748]}},{"name":"Crunchyroll","category_code":"games_video","description":"","address1":"","address2":"","zip_code":"94105","city":"San Francisco","state_code":"CA","country_code":"USA","location":{"type":"Point","coordinates":[-122.393229,37.781265]}},{"name":"Daylife","category_code":"enterprise","description":null,"address1":"444 Broadway, 5th floor","address2":"","zip_code":"10013","city":"New York","state_code":"NY","country_code":"USA","location":{"type":"Point","coordinates":[-73.886452,40.643438]}},{"name":"OMGPOP","category_code":"games_video","description":"","address1":"SoHo","address2":"","zip_code":"","city":"New York","state_code":"NY","country_code":"USA","location":{"type":"Point","coordinates":[-74.001704,40.723384]}},{"name":"OMGPOP","category_code":"games_video","description":"","address1":"","address2":"","zip_code":"","city":"Austin","state_code":"TX","country_code":"USA","location":null},{"name":"ThemBid","category_code":"ecommerce","description":null,"address1":"8500 Utica Avenue, Suite 245","address2":null,"zip_code":"91730","city":"Rancho Cucamonga","state_code":"CA","country_code":"USA","location":{"type":"Point","coordinates":[-117.572967,34.099253]}},{"name":"Behance","category_code":"web","description":"","address1":"","address2":"","zip_code":"10012","city":"New York","state_code":"NY","country_code":"USA","location":{"type":"Point","coordinates":[-74.004592,40.74406]}},{"name":"Ooyala","category_code":"analytics","description":"Corporate Headquarters","address1":"800 West El Camino Real","address2":"Suite 350","zip_code":"94040","city":"Mountain View","state_code":"CA","country_code":"USA","location":{"type":"Point","coordinates":[-122.084171,37.386665]}},{"name":"Ooyala","category_code":"analytics","description":"New York","address1":"156 5th Avenue","address2":"","zip_code":"10011","city":"New York","state_code":"NY","country_code":"USA","location":null},{"name":"Ooyala","category_code":"analytics","description":"London","address1":"85 Tottenham Court Road","address2":"","zip_code":"W1T 4TQ","city":"London","state_code":null,"country_code":"GBR","location":null},{"name":"Ooyala","category_code":"analytics","description":"Guadalajara","address1":"Avenida Americas 1600, Piso 7. Colonia Country Club.","address2":"","zip_code":"44610","city":"Guadalajara","state_code":null,"country_code":"MEX","location":null},{"name":"CircleUp","category_code":"finance","description":"","address1":"","address2":"","zip_code":"","city":"San Francisco","state_code":"CA","country_code":"USA","location":null},{"name":"FAROO","category_code":"search","description":"","address1":"24 Greville Street","address2":"","zip_code":"EC1N 8SS","city":"London","state_code":null,"country_code":"GBR","location":{"type":"Point","coordinates":[-0.1065551,51.5195795]}},{"name":"Magnify","category_code":"games_video","description":null,"address1":null,"address2":null,"zip_code":null,"city":"New York","state_code":"NY","country_code":"USA","location":null},{"name":"AgentMatch","category_code":"web","description":null,"address1":"","address2":null,"zip_code":"94110","city":"","state_code":"CA","country_code":"USA","location":null},{"name":"hulu","category_code":"games_video","description":null,"address1":"12312 W. Olympic Blvd.","address2":null,"zip_code":"90064","city":"Los Angeles","state_code":"CA","country_code":"USA","location":{"type":"Point","coordinates":[-118.456806,34.031276]}},{"name":"LineUpNewYork","category_code":"web","description":null,"address1":"1410 Broadway","address2":null,"zip_code":"10018","city":"New York","state_code":"NY","country_code":"USA","location":{"type":"Point","coordinates":[-73.986771,40.753202]}},{"name":"MediaPops","category_code":"games_video","description":null,"address1":null,"address2":null,"zip_code":"98101","city":"Seattle","state_code":"WA","country_code":"USA","location":{"type":"Point","coordinates":[-122.333523,47.611012]}},{"name":"AdMob","category_code":"advertising","description":"Google, Inc","address1":"1600 Amphitheatre Parkway","address2":"","zip_code":"94043","city":"Mountain View","state_code":"CA","country_code":"USA","location":{"type":"Point","coordinates":[-122.324621,37.563585]}},{"name":"OrganizedWisdom","category_code":"other","description":null,"address1":"2000 Broadway","address2":"18th Floor","zip_code":"10023","city":"New York","state_code":"NY","country_code":"USA","location":{"type":"Point","coordinates":[-73.981709,40.775537]}},{"name":"ElephantDrive","category_code":"web","description":null,"address1":"","address2":null,"zip_code":"90024","city":"Los Angeles","state_code":"CA","country_code":"USA","location":null},{"name":"Musicshake","category_code":"games_video","description":"","address1":"3460 Wilshire Blvd. 7FL","address2":"","zip_code":"90010","city":"Los Angeles","state_code":"CA","country_code":"USA","location":null},{"name":"Attributor","category_code":"software","description":"","address1":"119 South B Street","address2":"Suite A","zip_code":"94401","city":"San Mateo","state_code":"CA","country_code":"USA","location":{"type":"Point","coordinates":[-122.228595,37.453687]}},{"name":"BeFunky","category_code":"photo_video","description":"","address1":"","address2":"","zip_code":"","city":"","state_code":null,"country_code":"USA","location":null},{"name":"BeFunky","category_code":"photo_video","description":null,"address1":null,"address2":null,"zip_code":null,"city":"San Francisco","state_code":"CA","country_code":"USA","location":{"type":"Point","coordinates":[-122.4194155,37.7749295]}},{"name":"GotStatus","category_code":"web","description":null,"address1":null,"address2":null,"zip_code":"78731","city":"Austin","state_code":"TX","country_code":"USA","location":{"type":"Point","coordinates":[-97.770174,30.34497]}},{"name":"PeekYou","category_code":"search","description":null,"address1":null,"address2":null,"zip_code":null,"city":"New York","state_code":"NY","country_code":"USA","location":{"type":"Point","coordinates":[-73.985506,40.757929]}},{"name":"4INFO","category_code":"advertising","description":"","address1":"155 Bovet Road, Suite 200","address2":"","zip_code":"94402","city":"San Mateo","state_code":"CA","country_code":"USA","location":null},{"name":"ZocDoc","category_code":"health","description":"Headquarters","address1":"568 Broadway","address2":"9th Floor","zip_code":"10012","city":"New York","state_code":"NY","country_code":"USA","location":null},{"name":"Mozy","category_code":"public_relations","description":"Mozy, Inc.","address1":"2162 W. Grove Pkwy","address2":"","zip_code":"84062","city":"Pleasant Grove","state_code":"UT","country_code":"USA","location":{"type":"Point","coordinates":[-111.777531,40.357978]}},{"name":"Viewdle","category_code":"analytics","description":"Visual Analysis Products","address1":"122 Hamilton Ave.","address2":"","zip_code":"95128","city":"Palo Alto","state_code":"CA","country_code":"USA","location":null},{"name":"Mixx","category_code":"web","description":"","address1":"","address2":"","zip_code":"22102","city":"McLean","state_code":"VA","country_code":"USA","location":{"type":"Point","coordinates":[-79.420926,38.003376]}},{"name":"Kerpoof","category_code":"web","description":"","address1":"1215 Spruce St Ste 301","address2":"","zip_code":"80302-4839","city":"Boulder","state_code":"CO","country_code":"USA","location":{"type":"Point","coordinates":[-105.38018,40.048078]}},{"name":"ITema","category_code":"software","description":null,"address1":null,"address2":null,"zip_code":"06320","city":"New London","state_code":"CT","country_code":"USA","location":{"type":"Point","coordinates":[-72.105722,41.345754]}},{"name":"Orgoo","category_code":"web","description":"","address1":"11022 Santa Monica Blvd.","address2":"","zip_code":"90025","city":"Los Angeles","state_code":"CA","country_code":"USA","location":{"type":"Point","coordinates":[-118.4419012,34.0481711]}},{"name":"app2you","category_code":"web","description":null,"address1":null,"address2":null,"zip_code":"92037","city":"La Jolla","state_code":"CA","country_code":"USA","location":{"type":"Point","coordinates":[-117.274609,32.847521]}},{"name":"HylioSoft","category_code":"web","description":null,"address1":"57 rue Lothaire","address2":null,"zip_code":"57000","city":"METZ","state_code":null,"country_code":"FRA","location":{"type":"Point","coordinates":[6.182658,49.1004]}},{"name":"Sertifi","category_code":"software","description":"","address1":"325 W Huron St. Suite 207","address2":"","zip_code":"60654","city":"Chicago","state_code":"IL","country_code":"USA","location":null},{"name":"Wixi","category_code":"network_hosting","description":"","address1":"41 East 11th Street, 11th Floor","address2":"","zip_code":"10003","city":"New York","state_code":"NY","country_code":"USA","location":null},{"name":"YourStreet","category_code":"web","description":null,"address1":"1819 Polk Street #196","address2":null,"zip_code":"94109","city":"San Francisco","state_code":"CA","country_code":"USA","location":{"type":"Point","coordinates":[-122.421341,37.793742]}},{"name":"TripIt","category_code":"travel","description":"","address1":"500 Treat Avenue, Suite 100","address2":"","zip_code":"94110","city":"San Francisco","state_code":"CA","country_code":"USA","location":{"type":"Point","coordinates":[-122.402021,37.764169]}},{"name":"Vidoop","category_code":"software","description":"Main Office","address1":"117 NW 5th Ave","address2":"Suite 210","zip_code":"97209","city":"Portland","state_code":"OR","country_code":"USA","location":{"type":"Point","coordinates":[-122.675448,45.5241278]}},{"name":"Ceedo Technologies","category_code":"mobile","description":"HQ","address1":"Hamelacha 21","address2":"Park Afek","zip_code":"11695","city":"Rosh Ha'ayin","state_code":null,"country_code":"ISR","location":null},{"name":"GlobalMotion","category_code":"travel","description":null,"address1":"516 Bryant St","address2":null,"zip_code":"94301","city":"Palo Alto","state_code":"CA","country_code":"USA","location":{"type":"Point","coordinates":[-122.161247,37.445714]}},{"name":"Snoozester","category_code":"mobile","description":null,"address1":"","address2":null,"zip_code":"20852","city":"Rockville","state_code":"MD","country_code":"USA","location":{"type":"Point","coordinates":[-77.123153,39.052614]}},{"name":"Zerofootprint","category_code":"software","description":"Zerofootprint Canada","address1":"197 Spadina Ave","address2":"Suite 400","zip_code":"M5T 2C8","city":"Toronto","state_code":null,"country_code":"CAN","location":{"type":"Point","coordinates":[-79.396805,43.6501051]}},